[{"pk": 1, "model": "gtfs.stop", "fields": {"stopName": "5900 W Jackson", "locationType": null, "stopDesc": null, "zoneId": null, "stopId": "2", "stopUrl": null, "stopCode": null, "lat": 41.87706679, "parentStation": "", "lng": -87.77131794, "wheelchairAccessible": null}}, {"pk": 2, "model": "gtfs.stop", "fields": {"stopName": "Jackson & Menard", "locationType": null, "stopDesc": null, "zoneId": null, "stopId": "3", "stopUrl": null, "stopCode": null, "lat": 41.87695725, "parentStation": "", "lng": -87.76975039, "wheelchairAccessible": null}}, {"pk": 3, "model": "gtfs.stop", "fields": {"stopName": "5700 W Jackson", "locationType": null, "stopDesc": null, "zoneId": null, "stopId": "4", "stopUrl": null, "stopCode": null, "lat": 41.87702418, "parentStation": "", "lng": -87.76745055, "wheelchairAccessible": null}}, {"pk": 4, "model": "gtfs.stop", "fields": {"stopName": "Jackson & Lotus", "locationType": null, "stopDesc": null, "zoneId": null, "stopId": "6", "stopUrl": null, "stopCode": null, "lat": 41.876513, "parentStation": "", "lng": -87.761446, "wheelchairAccessible": null}}, {"pk": 5, "model": "gtfs.stop", "fields": {"stopName": "5351 W Jackson", "locationType": null, "stopDesc": null, "zoneId": null, "stopId": "7", "stopUrl": null, "stopCode": null, "lat": 41.87655197, "parentStation": "", "lng": -87.75892544, "wheelchairAccessible": null}}, {"pk": 6, "model": "gtfs.stop", "fields": {"stopName": "Jackson & Lockwood", "locationType": null, "stopDesc": null, "zoneId": null, "stopId": "8", "stopUrl": null, "stopCode": null, "lat": 41.876564, "parentStation": "", "lng": -87.757313, "wheelchairAccessible": null}}, {"pk": 7, "model": "gtfs.stop", "fields": {"stopName": "Jackson & Laramie", "locationType": null, "stopDesc": null, "zoneId": null, "stopId": "9", "stopUrl": null, "stopCode": null, "lat": 41.87659463, "parentStation": "", "lng": -87.75461526, "wheelchairAccessible": null}}, {"pk": 8, "model": "gtfs.stop", "fields": {"stopName": "Jackson & Leamington", "locationType": null, "stopDesc": null, "zoneId": null, "stopId": "10", "stopUrl": null, "stopCode": null, "lat": 41.87662635, "parentStation": "", "lng": -87.7531684, "wheelchairAccessible": null}}, {"pk": 9, "model": "gtfs.stop", "fields": {"stopName": "5047 W Jackson", "locationType": null, "stopDesc": null, "zoneId": null, "stopId": "11", "stopUrl": null, "stopCode": null, "lat": 41.8766513, "parentStation": "", "lng": -87.75128256, "wheelchairAccessible": null}}, {"pk": 10, "model": "gtfs.stop", "fields": {"stopName": "Jackson & Lavergne", "locationType": null, "stopDesc": null, "zoneId": null, "stopId": "12", "stopUrl": null, "stopCode": null, "lat": 41.87662062, "parentStation": "", "lng": -87.74912362, "wheelchairAccessible": null}}, {"pk": 11, "model": "gtfs.stop", "fields": {"stopName": "4849 W Jackson", "locationType": null, "stopDesc": null, "zoneId": null, "stopId": "13", "stopUrl": null, "stopCode": null, "lat": 41.87668892, "parentStation": "", "lng": -87.74701737, "wheelchairAccessible": null}}, {"pk": 12, "model": "gtfs.stop", "fields": {"stopName": "Jackson & Cicero", "locationType": null, "stopDesc": null, "zoneId": null, "stopId": "14", "stopUrl": null, "stopCode": null, "lat": 41.87676314, "parentStation": "", "lng": -87.74483066, "wheelchairAccessible": null}}, {"pk": 13, "model": "gtfs.stop", "fields": {"stopName": "Jackson & Kilpatrick", "locationType": null, "stopDesc": null, "zoneId": null, "stopId": "15", "stopUrl": null, "stopCode": null, "lat": 41.87682975, "parentStation": "", "lng": -87.74254901, "wheelchairAccessible": null}}, {"pk": 14, "model": "gtfs.stop", "fields": {"stopName": "Jackson & Kenton", "locationType": null, "stopDesc": null, "zoneId": null, "stopId": "16", "stopUrl": null, "stopCode": null, "lat": 41.87683358, "parentStation": "", "lng": -87.74058525, "wheelchairAccessible": null}}, {"pk": 15, "model": "gtfs.stop", "fields": {"stopName": "Jackson & Kolmar", "locationType": null, "stopDesc": null, "zoneId": null, "stopId": "17", "stopUrl": null, "stopCode": null, "lat": 41.87685748, "parentStation": "", "lng": -87.73934698, "wheelchairAccessible": null}}, {"pk": 16, "model": "gtfs.stop", "fields": {"stopName": "Jackson & Kilbourn", "locationType": null, "stopDesc": null, "zoneId": null, "stopId": "18", "stopUrl": null, "stopCode": null, "lat": 41.87688572, "parentStation": "", "lng": -87.73761421, "wheelchairAccessible": null}}, {"pk": 17, "model": "gtfs.stop", "fields": {"stopName": "Jackson & Kostner", "locationType": null, "stopDesc": null, "zoneId": null, "stopId": "19", "stopUrl": null, "stopCode": null, "lat": 41.87691497, "parentStation": "", "lng": -87.73515882, "wheelchairAccessible": null}}, {"pk": 18, "model": "gtfs.stop", "fields": {"stopName": "Jackson & Kildare", "locationType": null, "stopDesc": null, "zoneId": null, "stopId": "20", "stopUrl": null, "stopCode": null, "lat": 41.876933, "parentStation": "", "lng": -87.73265, "wheelchairAccessible": null}}, {"pk": 19, "model": "gtfs.stop", "fields": {"stopName": "Jackson & Keeler", "locationType": null, "stopDesc": null, "zoneId": null, "stopId": "21", "stopUrl": null, "stopCode": null, "lat": 41.876963, "parentStation": "", "lng": -87.7302, "wheelchairAccessible": null}}, {"pk": 20, "model": "gtfs.stop", "fields": {"stopName": "Jackson & Karlov", "locationType": null, "stopDesc": null, "zoneId": null, "stopId": "22", "stopUrl": null, "stopCode": null, "lat": 41.8770066, "parentStation": "", "lng": -87.72780787, "wheelchairAccessible": null}}, {"pk": 21, "model": "gtfs.stop", "fields": {"stopName": "Jackson & Pulaski", "locationType": null, "stopDesc": null, "zoneId": null, "stopId": "23", "stopUrl": null, "stopCode": null, "lat": 41.87704003, "parentStation": "", "lng": -87.72532923, "wheelchairAccessible": null}}, {"pk": 22, "model": "gtfs.stop", "fields": {"stopName": "Jackson & Springfield", "locationType": null, "stopDesc": null, "zoneId": null, "stopId": "24", "stopUrl": null, "stopCode": null, "lat": 41.87706855, "parentStation": "", "lng": -87.72295441, "wheelchairAccessible": null}}, {"pk": 23, "model": "gtfs.stop", "fields": {"stopName": "Jackson & Hamlin", "locationType": null, "stopDesc": null, "zoneId": null, "stopId": "25", "stopUrl": null, "stopCode": null, "lat": 41.87708065, "parentStation": "", "lng": -87.72082664, "wheelchairAccessible": null}}, {"pk": 24, "model": "gtfs.stop", "fields": {"stopName": "Jackson & Central Park", "locationType": null, "stopDesc": null, "zoneId": null, "stopId": "26", "stopUrl": null, "stopCode": null, "lat": 41.87714182, "parentStation": "", "lng": -87.7154772, "wheelchairAccessible": null}}, {"pk": 25, "model": "gtfs.stop", "fields": {"stopName": "Jackson & St. Louis", "locationType": null, "stopDesc": null, "zoneId": null, "stopId": "27", "stopUrl": null, "stopCode": null, "lat": 41.877181, "parentStation": "", "lng": -87.713241, "wheelchairAccessible": null}}, {"pk": 26, "model": "gtfs.stop", "fields": {"stopName": "Jackson & Spaulding", "locationType": null, "stopDesc": null, "zoneId": null, "stopId": "29", "stopUrl": null, "stopCode": null, "lat": 41.87723116, "parentStation": "", "lng": -87.70827664, "wheelchairAccessible": null}}, {"pk": 27, "model": "gtfs.stop", "fields": {"stopName": "Jackson & Kedzie", "locationType": null, "stopDesc": null, "zoneId": null, "stopId": "30", "stopUrl": null, "stopCode": null, "lat": 41.87725804, "parentStation": "", "lng": -87.70577393, "wheelchairAccessible": null}}, {"pk": 28, "model": "gtfs.stop", "fields": {"stopName": "Jackson & Albany", "locationType": null, "stopDesc": null, "zoneId": null, "stopId": "31", "stopUrl": null, "stopCode": null, "lat": 41.877288, "parentStation": "", "lng": -87.703323, "wheelchairAccessible": null}}, {"pk": 29, "model": "gtfs.stop", "fields": {"stopName": "Jackson & Sacramento", "locationType": null, "stopDesc": null, "zoneId": null, "stopId": "32", "stopUrl": null, "stopCode": null, "lat": 41.877318, "parentStation": "", "lng": -87.700867, "wheelchairAccessible": null}}, {"pk": 30, "model": "gtfs.stop", "fields": {"stopName": "Jackson & Francisco", "locationType": null, "stopDesc": null, "zoneId": null, "stopId": "33", "stopUrl": null, "stopCode": null, "lat": 41.877348, "parentStation": "", "lng": -87.69841, "wheelchairAccessible": null}}, {"pk": 31, "model": "gtfs.stop", "fields": {"stopName": "Jackson & California", "locationType": null, "stopDesc": null, "zoneId": null, "stopId": "34", "stopUrl": null, "stopCode": null, "lat": 41.87737082, "parentStation": "", "lng": -87.69595515, "wheelchairAccessible": null}}, {"pk": 32, "model": "gtfs.stop", "fields": {"stopName": "Jackson & Washtenaw", "locationType": null, "stopDesc": null, "zoneId": null, "stopId": "35", "stopUrl": null, "stopCode": null, "lat": 41.87739943, "parentStation": "", "lng": -87.69355299, "wheelchairAccessible": null}}, {"pk": 33, "model": "gtfs.stop", "fields": {"stopName": "2609 W Jackson", "locationType": null, "stopDesc": null, "zoneId": null, "stopId": "36", "stopUrl": null, "stopCode": null, "lat": 41.8774236, "parentStation": "", "lng": -87.69165753, "wheelchairAccessible": null}}, {"pk": 34, "model": "gtfs.stop", "fields": {"stopName": "Jackson & Western", "locationType": null, "stopDesc": null, "zoneId": null, "stopId": "38", "stopUrl": null, "stopCode": null, "lat": 41.877478, "parentStation": "", "lng": -87.686093, "wheelchairAccessible": null}}, {"pk": 35, "model": "gtfs.stop", "fields": {"stopName": "Jackson & Oakley", "locationType": null, "stopDesc": null, "zoneId": null, "stopId": "39", "stopUrl": null, "stopCode": null, "lat": 41.877496, "parentStation": "", "lng": -87.683652, "wheelchairAccessible": null}}, {"pk": 36, "model": "gtfs.stop", "fields": {"stopName": "Jackson & Leavitt", "locationType": null, "stopDesc": null, "zoneId": null, "stopId": "40", "stopUrl": null, "stopCode": null, "lat": 41.87754396, "parentStation": "", "lng": -87.68127094, "wheelchairAccessible": null}}, {"pk": 37, "model": "gtfs.stop", "fields": {"stopName": "Jackson & Hoyne", "locationType": null, "stopDesc": null, "zoneId": null, "stopId": "41", "stopUrl": null, "stopCode": null, "lat": 41.87739502, "parentStation": "", "lng": -87.67873587, "wheelchairAccessible": null}}, {"pk": 38, "model": "gtfs.stop", "fields": {"stopName": "Jackson & Damen", "locationType": null, "stopDesc": null, "zoneId": null, "stopId": "42", "stopUrl": null, "stopCode": null, "lat": 41.877421, "parentStation": "", "lng": -87.67667235, "wheelchairAccessible": null}}, {"pk": 39, "model": "gtfs.stop", "fields": {"stopName": "Damen & Congress", "locationType": null, "stopDesc": null, "zoneId": null, "stopId": "44", "stopUrl": null, "stopCode": null, "lat": 41.87513747, "parentStation": "", "lng": -87.67664239, "wheelchairAccessible": null}}, {"pk": 40, "model": "gtfs.stop", "fields": {"stopName": "Harrison & Wood", "locationType": null, "stopDesc": null, "zoneId": null, "stopId": "48", "stopUrl": null, "stopCode": null, "lat": 41.874059, "parentStation": "", "lng": -87.671334, "wheelchairAccessible": null}}, {"pk": 41, "model": "gtfs.stop", "fields": {"stopName": "Harrison & Paulina", "locationType": null, "stopDesc": null, "zoneId": null, "stopId": "49", "stopUrl": null, "stopCode": null, "lat": 41.87409, "parentStation": "", "lng": -87.669231, "wheelchairAccessible": null}}, {"pk": 42, "model": "gtfs.stop", "fields": {"stopName": "Ashland & Congress", "locationType": null, "stopDesc": null, "zoneId": null, "stopId": "50", "stopUrl": null, "stopCode": null, "lat": 41.87508698, "parentStation": "", "lng": -87.66643194, "wheelchairAccessible": null}}, {"pk": 43, "model": "gtfs.stop", "fields": {"stopName": "Ashland & Van Buren", "locationType": null, "stopDesc": null, "zoneId": null, "stopId": "51", "stopUrl": null, "stopCode": null, "lat": 41.87655158, "parentStation": "", "lng": -87.66651521, "wheelchairAccessible": null}}, {"pk": 44, "model": "gtfs.stop", "fields": {"stopName": "Malcolm X College", "locationType": null, "stopDesc": null, "zoneId": null, "stopId": "52", "stopUrl": null, "stopCode": null, "lat": 41.87743988, "parentStation": "", "lng": -87.67402389, "wheelchairAccessible": null}}, {"pk": 45, "model": "gtfs.stop", "fields": {"stopName": "Jackson & Ogden", "locationType": null, "stopDesc": null, "zoneId": null, "stopId": "53", "stopUrl": null, "stopCode": null, "lat": 41.87748733, "parentStation": "", "lng": -87.67103731, "wheelchairAccessible": null}}, {"pk": 46, "model": "gtfs.stop", "fields": {"stopName": "Jackson & Paulina", "locationType": null, "stopDesc": null, "zoneId": null, "stopId": "54", "stopUrl": null, "stopCode": null, "lat": 41.8775244, "parentStation": "", "lng": -87.66899047, "wheelchairAccessible": null}}, {"pk": 47, "model": "gtfs.stop", "fields": {"stopName": "Jackson & Ashland", "locationType": null, "stopDesc": null, "zoneId": null, "stopId": "55", "stopUrl": null, "stopCode": null, "lat": 41.87755467, "parentStation": "", "lng": -87.66689065, "wheelchairAccessible": null}}, {"pk": 48, "model": "gtfs.stop", "fields": {"stopName": "Jackson & Laflin", "locationType": null, "stopDesc": null, "zoneId": null, "stopId": "56", "stopUrl": null, "stopCode": null, "lat": 41.87759, "parentStation": "", "lng": -87.664068, "wheelchairAccessible": null}}, {"pk": 49, "model": "gtfs.stop", "fields": {"stopName": "Jackson & Loomis", "locationType": null, "stopDesc": null, "zoneId": null, "stopId": "57", "stopUrl": null, "stopCode": null, "lat": 41.877634, "parentStation": "", "lng": -87.661652, "wheelchairAccessible": null}}, {"pk": 50, "model": "gtfs.stop", "fields": {"stopName": "Jackson & Racine", "locationType": null, "stopDesc": null, "zoneId": null, "stopId": "59", "stopUrl": null, "stopCode": null, "lat": 41.87772931, "parentStation": "", "lng": -87.65677916, "wheelchairAccessible": null}}, {"pk": 51, "model": "gtfs.stop", "fields": {"stopName": "Jackson & Aberdeen", "locationType": null, "stopDesc": null, "zoneId": null, "stopId": "60", "stopUrl": null, "stopCode": null, "lat": 41.877751, "parentStation": "", "lng": -87.654338, "wheelchairAccessible": null}}, {"pk": 52, "model": "gtfs.stop", "fields": {"stopName": "Jackson & Morgan", "locationType": null, "stopDesc": null, "zoneId": null, "stopId": "61", "stopUrl": null, "stopCode": null, "lat": 41.87780698, "parentStation": "", "lng": -87.65169869, "wheelchairAccessible": null}}, {"pk": 53, "model": "gtfs.stop", "fields": {"stopName": "Jackson & Peoria", "locationType": null, "stopDesc": null, "zoneId": null, "stopId": "63", "stopUrl": null, "stopCode": null, "lat": 41.87784819, "parentStation": "", "lng": -87.64946073, "wheelchairAccessible": null}}, {"pk": 54, "model": "gtfs.stop", "fields": {"stopName": "Jackson & Halsted", "locationType": null, "stopDesc": null, "zoneId": null, "stopId": "64", "stopUrl": null, "stopCode": null, "lat": 41.8778898, "parentStation": "", "lng": -87.64696658, "wheelchairAccessible": null}}, {"pk": 55, "model": "gtfs.stop", "fields": {"stopName": "Jackson & Desplaines", "locationType": null, "stopDesc": null, "zoneId": null, "stopId": "65", "stopUrl": null, "stopCode": null, "lat": 41.87792686, "parentStation": "", "lng": -87.64375065, "wheelchairAccessible": null}}, {"pk": 56, "model": "gtfs.stop", "fields": {"stopName": "Jackson & Canal", "locationType": null, "stopDesc": null, "zoneId": null, "stopId": "67", "stopUrl": null, "stopCode": null, "lat": 41.877997, "parentStation": "", "lng": -87.639776, "wheelchairAccessible": null}}, {"pk": 57, "model": "gtfs.stop", "fields": {"stopName": "Jackson & Franklin", "locationType": null, "stopDesc": null, "zoneId": null, "stopId": "68", "stopUrl": null, "stopCode": null, "lat": 41.878051, "parentStation": "", "lng": -87.635401, "wheelchairAccessible": null}}, {"pk": 58, "model": "gtfs.stop", "fields": {"stopName": "Jackson & Financial Place", "locationType": null, "stopDesc": null, "zoneId": null, "stopId": "69", "stopUrl": null, "stopCode": null, "lat": 41.878081, "parentStation": "", "lng": -87.632868, "wheelchairAccessible": null}}, {"pk": 59, "model": "gtfs.stop", "fields": {"stopName": "Jackson & Dearborn", "locationType": null, "stopDesc": null, "zoneId": null, "stopId": "70", "stopUrl": null, "stopCode": null, "lat": 41.878121, "parentStation": "", "lng": -87.629467, "wheelchairAccessible": null}}, {"pk": 60, "model": "gtfs.stop", "fields": {"stopName": "Jackson & State", "locationType": null, "stopDesc": null, "zoneId": null, "stopId": "71", "stopUrl": null, "stopCode": null, "lat": 41.878141, "parentStation": "", "lng": -87.627899, "wheelchairAccessible": null}}, {"pk": 61, "model": "gtfs.stop", "fields": {"stopName": "Jackson & Wabash", "locationType": null, "stopDesc": null, "zoneId": null, "stopId": "72", "stopUrl": null, "stopCode": null, "lat": 41.878208, "parentStation": "", "lng": -87.625752, "wheelchairAccessible": null}}, {"pk": 62, "model": "gtfs.stop", "fields": {"stopName": "Michigan & Van Buren/Congress", "locationType": null, "stopDesc": null, "zoneId": null, "stopId": "73", "stopUrl": null, "stopCode": null, "lat": 41.876271, "parentStation": "", "lng": -87.624396, "wheelchairAccessible": null}}, {"pk": 63, "model": "gtfs.stop", "fields": {"stopName": "Congress Plaza & Michigan", "locationType": null, "stopDesc": null, "zoneId": null, "stopId": "74", "stopUrl": null, "stopCode": null, "lat": 41.87485809, "parentStation": "", "lng": -87.62355113, "wheelchairAccessible": null}}, {"pk": 64, "model": "gtfs.stop", "fields": {"stopName": "Michigan & Van Buren", "locationType": null, "stopDesc": null, "zoneId": null, "stopId": "75", "stopUrl": null, "stopCode": null, "lat": 41.87669, "parentStation": "", "lng": -87.62416, "wheelchairAccessible": null}}, {"pk": 65, "model": "gtfs.stop", "fields": {"stopName": "Michigan & Jackson", "locationType": null, "stopDesc": null, "zoneId": null, "stopId": "76", "stopUrl": null, "stopCode": null, "lat": 41.878135, "parentStation": "", "lng": -87.624193, "wheelchairAccessible": null}}, {"pk": 66, "model": "gtfs.stop", "fields": {"stopName": "Adams & Wabash", "locationType": null, "stopDesc": null, "zoneId": null, "stopId": "77", "stopUrl": null, "stopCode": null, "lat": 41.879575, "parentStation": "", "lng": -87.625884, "wheelchairAccessible": null}}, {"pk": 67, "model": "gtfs.stop", "fields": {"stopName": "Adams & Wells", "locationType": null, "stopDesc": null, "zoneId": null, "stopId": "80", "stopUrl": null, "stopCode": null, "lat": 41.879426, "parentStation": "", "lng": -87.634024, "wheelchairAccessible": null}}, {"pk": 68, "model": "gtfs.stop", "fields": {"stopName": "Van Buren & Jefferson", "locationType": null, "stopDesc": null, "zoneId": null, "stopId": "86", "stopUrl": null, "stopCode": null, "lat": 41.876778, "parentStation": "", "lng": -87.642319, "wheelchairAccessible": null}}, {"pk": 69, "model": "gtfs.stop", "fields": {"stopName": "Van Buren & Desplaines", "locationType": null, "stopDesc": null, "zoneId": null, "stopId": "87", "stopUrl": null, "stopCode": null, "lat": 41.87676, "parentStation": "", "lng": -87.643782, "wheelchairAccessible": null}}, {"pk": 70, "model": "gtfs.stop", "fields": {"stopName": "Van Buren & Halsted", "locationType": null, "stopDesc": null, "zoneId": null, "stopId": "88", "stopUrl": null, "stopCode": null, "lat": 41.876726, "parentStation": "", "lng": -87.647048, "wheelchairAccessible": null}}, {"pk": 71, "model": "gtfs.stop", "fields": {"stopName": "Van Buren & Peoria", "locationType": null, "stopDesc": null, "zoneId": null, "stopId": "89", "stopUrl": null, "stopCode": null, "lat": 41.876682, "parentStation": "", "lng": -87.649401, "wheelchairAccessible": null}}, {"pk": 72, "model": "gtfs.stop", "fields": {"stopName": "Van Buren & Aberdeen", "locationType": null, "stopDesc": null, "zoneId": null, "stopId": "92", "stopUrl": null, "stopCode": null, "lat": 41.87661688, "parentStation": "", "lng": -87.6544072, "wheelchairAccessible": null}}, {"pk": 73, "model": "gtfs.stop", "fields": {"stopName": "Van Buren & Racine", "locationType": null, "stopDesc": null, "zoneId": null, "stopId": "93", "stopUrl": null, "stopCode": null, "lat": 41.87657583, "parentStation": "", "lng": -87.65680352, "wheelchairAccessible": null}}, {"pk": 74, "model": "gtfs.stop", "fields": {"stopName": "Van Buren & Throop", "locationType": null, "stopDesc": null, "zoneId": null, "stopId": "94", "stopUrl": null, "stopCode": null, "lat": 41.87652937, "parentStation": "", "lng": -87.65932106, "wheelchairAccessible": null}}, {"pk": 75, "model": "gtfs.stop", "fields": {"stopName": "Van Buren & Laflin", "locationType": null, "stopDesc": null, "zoneId": null, "stopId": "96", "stopUrl": null, "stopCode": null, "lat": 41.87644665, "parentStation": "", "lng": -87.66410017, "wheelchairAccessible": null}}, {"pk": 76, "model": "gtfs.stop", "fields": {"stopName": "Van Buren & Ashland", "locationType": null, "stopDesc": null, "zoneId": null, "stopId": "97", "stopUrl": null, "stopCode": null, "lat": 41.87640948, "parentStation": "", "lng": -87.66647087, "wheelchairAccessible": null}}, {"pk": 77, "model": "gtfs.stop", "fields": {"stopName": "Van Buren & Ogden", "locationType": null, "stopDesc": null, "zoneId": null, "stopId": "99", "stopUrl": null, "stopCode": null, "lat": 41.87632903, "parentStation": "", "lng": -87.67187647, "wheelchairAccessible": null}}, {"pk": 78, "model": "gtfs.stop", "fields": {"stopName": "Malcolm X College", "locationType": null, "stopDesc": null, "zoneId": null, "stopId": "100", "stopUrl": null, "stopCode": null, "lat": 41.876242, "parentStation": "", "lng": -87.674057, "wheelchairAccessible": null}}, {"pk": 79, "model": "gtfs.stop", "fields": {"stopName": "Van Buren & Damen", "locationType": null, "stopDesc": null, "zoneId": null, "stopId": "101", "stopUrl": null, "stopCode": null, "lat": 41.87624, "parentStation": "", "lng": -87.676072, "wheelchairAccessible": null}}, {"pk": 80, "model": "gtfs.stop", "fields": {"stopName": "Harrison & Paulina", "locationType": null, "stopDesc": null, "zoneId": null, "stopId": "103", "stopUrl": null, "stopCode": null, "lat": 41.87421, "parentStation": "", "lng": -87.66897, "wheelchairAccessible": null}}, {"pk": 81, "model": "gtfs.stop", "fields": {"stopName": "Harrison & Ogden", "locationType": null, "stopDesc": null, "zoneId": null, "stopId": "107", "stopUrl": null, "stopCode": null, "lat": 41.8741415, "parentStation": "", "lng": -87.67454701, "wheelchairAccessible": null}}, {"pk": 82, "model": "gtfs.stop", "fields": {"stopName": "Harrison & Damen", "locationType": null, "stopDesc": null, "zoneId": null, "stopId": "108", "stopUrl": null, "stopCode": null, "lat": 41.87410934, "parentStation": "", "lng": -87.67632053, "wheelchairAccessible": null}}, {"pk": 83, "model": "gtfs.stop", "fields": {"stopName": "Damen & Jackson", "locationType": null, "stopDesc": null, "zoneId": null, "stopId": "111", "stopUrl": null, "stopCode": null, "lat": 41.87740942, "parentStation": "", "lng": -87.67635136, "wheelchairAccessible": null}}, {"pk": 84, "model": "gtfs.stop", "fields": {"stopName": "Jackson & Rockwell", "locationType": null, "stopDesc": null, "zoneId": null, "stopId": "118", "stopUrl": null, "stopCode": null, "lat": 41.87755894, "parentStation": "", "lng": -87.69097077, "wheelchairAccessible": null}}, {"pk": 85, "model": "gtfs.stop", "fields": {"stopName": "Jackson & Washtenaw", "locationType": null, "stopDesc": null, "zoneId": null, "stopId": "119", "stopUrl": null, "stopCode": null, "lat": 41.87752503, "parentStation": "", "lng": -87.69403232, "wheelchairAccessible": null}}, {"pk": 86, "model": "gtfs.stop", "fields": {"stopName": "Jackson & California", "locationType": null, "stopDesc": null, "zoneId": null, "stopId": "120", "stopUrl": null, "stopCode": null, "lat": 41.87749585, "parentStation": "", "lng": -87.69648347, "wheelchairAccessible": null}}, {"pk": 87, "model": "gtfs.stop", "fields": {"stopName": "Jackson & Francisco", "locationType": null, "stopDesc": null, "zoneId": null, "stopId": "121", "stopUrl": null, "stopCode": null, "lat": 41.87747326, "parentStation": "", "lng": -87.6987788, "wheelchairAccessible": null}}, {"pk": 88, "model": "gtfs.stop", "fields": {"stopName": "Jackson & Sacramento", "locationType": null, "stopDesc": null, "zoneId": null, "stopId": "122", "stopUrl": null, "stopCode": null, "lat": 41.87744329, "parentStation": "", "lng": -87.70133446, "wheelchairAccessible": null}}, {"pk": 89, "model": "gtfs.stop", "fields": {"stopName": "Jackson & Albany", "locationType": null, "stopDesc": null, "zoneId": null, "stopId": "123", "stopUrl": null, "stopCode": null, "lat": 41.87740982, "parentStation": "", "lng": -87.70378269, "wheelchairAccessible": null}}, {"pk": 90, "model": "gtfs.stop", "fields": {"stopName": "Jackson & Kedzie", "locationType": null, "stopDesc": null, "zoneId": null, "stopId": "124", "stopUrl": null, "stopCode": null, "lat": 41.87739519, "parentStation": "", "lng": -87.70627812, "wheelchairAccessible": null}}, {"pk": 91, "model": "gtfs.stop", "fields": {"stopName": "Jackson & Spaulding", "locationType": null, "stopDesc": null, "zoneId": null, "stopId": "125", "stopUrl": null, "stopCode": null, "lat": 41.8773701, "parentStation": "", "lng": -87.70855292, "wheelchairAccessible": null}}, {"pk": 92, "model": "gtfs.stop", "fields": {"stopName": "Jackson & Homan", "locationType": null, "stopDesc": null, "zoneId": null, "stopId": "126", "stopUrl": null, "stopCode": null, "lat": 41.87735315, "parentStation": "", "lng": -87.71111733, "wheelchairAccessible": null}}, {"pk": 93, "model": "gtfs.stop", "fields": {"stopName": "Jackson & St. Louis", "locationType": null, "stopDesc": null, "zoneId": null, "stopId": "127", "stopUrl": null, "stopCode": null, "lat": 41.87730566, "parentStation": "", "lng": -87.71365567, "wheelchairAccessible": null}}, {"pk": 94, "model": "gtfs.stop", "fields": {"stopName": "Central Park & Jackson", "locationType": null, "stopDesc": null, "zoneId": null, "stopId": "128", "stopUrl": null, "stopCode": null, "lat": 41.87701673, "parentStation": "", "lng": -87.7158695, "wheelchairAccessible": null}}, {"pk": 95, "model": "gtfs.stop", "fields": {"stopName": "Jackson & Hamlin", "locationType": null, "stopDesc": null, "zoneId": null, "stopId": "129", "stopUrl": null, "stopCode": null, "lat": 41.8772105, "parentStation": "", "lng": -87.72104802, "wheelchairAccessible": null}}, {"pk": 96, "model": "gtfs.stop", "fields": {"stopName": "Jackson & Springfield", "locationType": null, "stopDesc": null, "zoneId": null, "stopId": "130", "stopUrl": null, "stopCode": null, "lat": 41.8771684, "parentStation": "", "lng": -87.72332492, "wheelchairAccessible": null}}, {"pk": 97, "model": "gtfs.stop", "fields": {"stopName": "Jackson & Pulaski", "locationType": null, "stopDesc": null, "zoneId": null, "stopId": "131", "stopUrl": null, "stopCode": null, "lat": 41.87713666, "parentStation": "", "lng": -87.72579473, "wheelchairAccessible": null}}, {"pk": 98, "model": "gtfs.stop", "fields": {"stopName": "Jackson & Karlov", "locationType": null, "stopDesc": null, "zoneId": null, "stopId": "132", "stopUrl": null, "stopCode": null, "lat": 41.87710765, "parentStation": "", "lng": -87.72819551, "wheelchairAccessible": null}}, {"pk": 99, "model": "gtfs.stop", "fields": {"stopName": "Jackson & Keeler", "locationType": null, "stopDesc": null, "zoneId": null, "stopId": "133", "stopUrl": null, "stopCode": null, "lat": 41.87707727, "parentStation": "", "lng": -87.73064873, "wheelchairAccessible": null}}, {"pk": 100, "model": "gtfs.stop", "fields": {"stopName": "Jackson & Kildare", "locationType": null, "stopDesc": null, "zoneId": null, "stopId": "134", "stopUrl": null, "stopCode": null, "lat": 41.8770945, "parentStation": "", "lng": -87.73310614, "wheelchairAccessible": null}}, {"pk": 101, "model": "gtfs.stop", "fields": {"stopName": "Jackson & Kostner", "locationType": null, "stopDesc": null, "zoneId": null, "stopId": "135", "stopUrl": null, "stopCode": null, "lat": 41.87701751, "parentStation": "", "lng": -87.73555571, "wheelchairAccessible": null}}, {"pk": 102, "model": "gtfs.stop", "fields": {"stopName": "Jackson & Kilbourn", "locationType": null, "stopDesc": null, "zoneId": null, "stopId": "136", "stopUrl": null, "stopCode": null, "lat": 41.87698719, "parentStation": "", "lng": -87.737991, "wheelchairAccessible": null}}, {"pk": 103, "model": "gtfs.stop", "fields": {"stopName": "Jackson & Kolmar", "locationType": null, "stopDesc": null, "zoneId": null, "stopId": "137", "stopUrl": null, "stopCode": null, "lat": 41.87696338, "parentStation": "", "lng": -87.73943465, "wheelchairAccessible": null}}, {"pk": 104, "model": "gtfs.stop", "fields": {"stopName": "Jackson & Kenton", "locationType": null, "stopDesc": null, "zoneId": null, "stopId": "138", "stopUrl": null, "stopCode": null, "lat": 41.87696546, "parentStation": "", "lng": -87.74069588, "wheelchairAccessible": null}}, {"pk": 105, "model": "gtfs.stop", "fields": {"stopName": "Jackson & Kilpatrick", "locationType": null, "stopDesc": null, "zoneId": null, "stopId": "139", "stopUrl": null, "stopCode": null, "lat": 41.87692666, "parentStation": "", "lng": -87.74280741, "wheelchairAccessible": null}}, {"pk": 106, "model": "gtfs.stop", "fields": {"stopName": "Jackson & Cicero", "locationType": null, "stopDesc": null, "zoneId": null, "stopId": "140", "stopUrl": null, "stopCode": null, "lat": 41.87685893, "parentStation": "", "lng": -87.74541898, "wheelchairAccessible": null}}, {"pk": 107, "model": "gtfs.stop", "fields": {"stopName": "4900 W Jackson", "locationType": null, "stopDesc": null, "zoneId": null, "stopId": "141", "stopUrl": null, "stopCode": null, "lat": 41.87682102, "parentStation": "", "lng": -87.74713903, "wheelchairAccessible": null}}, {"pk": 108, "model": "gtfs.stop", "fields": {"stopName": "Jackson & Lavergne", "locationType": null, "stopDesc": null, "zoneId": null, "stopId": "142", "stopUrl": null, "stopCode": null, "lat": 41.87680393, "parentStation": "", "lng": -87.74934028, "wheelchairAccessible": null}}, {"pk": 109, "model": "gtfs.stop", "fields": {"stopName": "5056 W Jackson", "locationType": null, "stopDesc": null, "zoneId": null, "stopId": "143", "stopUrl": null, "stopCode": null, "lat": 41.87675729, "parentStation": "", "lng": -87.75161217, "wheelchairAccessible": null}}, {"pk": 110, "model": "gtfs.stop", "fields": {"stopName": "Jackson & Leamington", "locationType": null, "stopDesc": null, "zoneId": null, "stopId": "144", "stopUrl": null, "stopCode": null, "lat": 41.87672858, "parentStation": "", "lng": -87.75353528, "wheelchairAccessible": null}}, {"pk": 111, "model": "gtfs.stop", "fields": {"stopName": "Jackson & Laramie", "locationType": null, "stopDesc": null, "zoneId": null, "stopId": "145", "stopUrl": null, "stopCode": null, "lat": 41.87673038, "parentStation": "", "lng": -87.75523999, "wheelchairAccessible": null}}, {"pk": 112, "model": "gtfs.stop", "fields": {"stopName": "Jackson & Lockwood", "locationType": null, "stopDesc": null, "zoneId": null, "stopId": "146", "stopUrl": null, "stopCode": null, "lat": 41.8766768, "parentStation": "", "lng": -87.75782934, "wheelchairAccessible": null}}, {"pk": 113, "model": "gtfs.stop", "fields": {"stopName": "5400 W Jackson", "locationType": null, "stopDesc": null, "zoneId": null, "stopId": "147", "stopUrl": null, "stopCode": null, "lat": 41.87664899, "parentStation": "", "lng": -87.75967824, "wheelchairAccessible": null}}, {"pk": 114, "model": "gtfs.stop", "fields": {"stopName": "Jackson & Lotus", "locationType": null, "stopDesc": null, "zoneId": null, "stopId": "148", "stopUrl": null, "stopCode": null, "lat": 41.87661212, "parentStation": "", "lng": -87.76154549, "wheelchairAccessible": null}}, {"pk": 115, "model": "gtfs.stop", "fields": {"stopName": "Jackson & Central", "locationType": null, "stopDesc": null, "zoneId": null, "stopId": "149", "stopUrl": null, "stopCode": null, "lat": 41.87660365, "parentStation": "", "lng": -87.76459825, "wheelchairAccessible": null}}, {"pk": 116, "model": "gtfs.stop", "fields": {"stopName": "5700 W Jackson", "locationType": null, "stopDesc": null, "zoneId": null, "stopId": "150", "stopUrl": null, "stopCode": null, "lat": 41.87716981, "parentStation": "", "lng": -87.76801292, "wheelchairAccessible": null}}, {"pk": 117, "model": "gtfs.stop", "fields": {"stopName": "Jackson & Menard", "locationType": null, "stopDesc": null, "zoneId": null, "stopId": "151", "stopUrl": null, "stopCode": null, "lat": 41.8771099, "parentStation": "", "lng": -87.76974453, "wheelchairAccessible": null}}, {"pk": 118, "model": "gtfs.stop", "fields": {"stopName": "Jackson & Mayfield", "locationType": null, "stopDesc": null, "zoneId": null, "stopId": "152", "stopUrl": null, "stopCode": null, "lat": 41.87723809, "parentStation": "", "lng": -87.7713027, "wheelchairAccessible": null}}, {"pk": 119, "model": "gtfs.stop", "fields": {"stopName": "Harrison & Central Terminal", "locationType": null, "stopDesc": null, "zoneId": null, "stopId": "153", "stopUrl": null, "stopCode": null, "lat": 41.872683, "parentStation": "", "lng": -87.76479999, "wheelchairAccessible": null}}, {"pk": 120, "model": "gtfs.stop", "fields": {"stopName": "Harrison & Lotus", "locationType": null, "stopDesc": null, "zoneId": null, "stopId": "154", "stopUrl": null, "stopCode": null, "lat": 41.872803, "parentStation": "", "lng": -87.761654, "wheelchairAccessible": null}}, {"pk": 121, "model": "gtfs.stop", "fields": {"stopName": "5400 W Harrison", "locationType": null, "stopDesc": null, "zoneId": null, "stopId": "155", "stopUrl": null, "stopCode": null, "lat": 41.8729, "parentStation": "", "lng": -87.759367, "wheelchairAccessible": null}}, {"pk": 122, "model": "gtfs.stop", "fields": {"stopName": "Harrison & Lockwood", "locationType": null, "stopDesc": null, "zoneId": null, "stopId": "156", "stopUrl": null, "stopCode": null, "lat": 41.872855, "parentStation": "", "lng": -87.75752, "wheelchairAccessible": null}}, {"pk": 123, "model": "gtfs.stop", "fields": {"stopName": "Harrison & Laramie", "locationType": null, "stopDesc": null, "zoneId": null, "stopId": "157", "stopUrl": null, "stopCode": null, "lat": 41.87288253, "parentStation": "", "lng": -87.75449102, "wheelchairAccessible": null}}, {"pk": 124, "model": "gtfs.stop", "fields": {"stopName": "Harrison & Leamington", "locationType": null, "stopDesc": null, "zoneId": null, "stopId": "158", "stopUrl": null, "stopCode": null, "lat": 41.87289309, "parentStation": "", "lng": -87.75318511, "wheelchairAccessible": null}}, {"pk": 125, "model": "gtfs.stop", "fields": {"stopName": "Harrison & Lavergne", "locationType": null, "stopDesc": null, "zoneId": null, "stopId": "159", "stopUrl": null, "stopCode": null, "lat": 41.87300185, "parentStation": "", "lng": -87.74920832, "wheelchairAccessible": null}}, {"pk": 126, "model": "gtfs.stop", "fields": {"stopName": "Harrison & Cicero", "locationType": null, "stopDesc": null, "zoneId": null, "stopId": "160", "stopUrl": null, "stopCode": null, "lat": 41.87306462, "parentStation": "", "lng": -87.74514556, "wheelchairAccessible": null}}, {"pk": 127, "model": "gtfs.stop", "fields": {"stopName": "Harrison & Kilpatrick", "locationType": null, "stopDesc": null, "zoneId": null, "stopId": "161", "stopUrl": null, "stopCode": null, "lat": 41.873099, "parentStation": "", "lng": -87.742661, "wheelchairAccessible": null}}, {"pk": 128, "model": "gtfs.stop", "fields": {"stopName": "4630 W Harrison", "locationType": null, "stopDesc": null, "zoneId": null, "stopId": "162", "stopUrl": null, "stopCode": null, "lat": 41.873198, "parentStation": "", "lng": -87.740893, "wheelchairAccessible": null}}, {"pk": 129, "model": "gtfs.stop", "fields": {"stopName": "Harrison & Kolmar ", "locationType": null, "stopDesc": null, "zoneId": null, "stopId": "163", "stopUrl": null, "stopCode": null, "lat": 41.873205, "parentStation": "", "lng": -87.739488, "wheelchairAccessible": null}}, {"pk": 130, "model": "gtfs.stop", "fields": {"stopName": "Harrison & Kilbourn ", "locationType": null, "stopDesc": null, "zoneId": null, "stopId": "164", "stopUrl": null, "stopCode": null, "lat": 41.87321343, "parentStation": "", "lng": -87.73794849, "wheelchairAccessible": null}}, {"pk": 131, "model": "gtfs.stop", "fields": {"stopName": "Harrison & Kostner", "locationType": null, "stopDesc": null, "zoneId": null, "stopId": "165", "stopUrl": null, "stopCode": null, "lat": 41.87376435, "parentStation": "", "lng": -87.73549587, "wheelchairAccessible": null}}, {"pk": 132, "model": "gtfs.stop", "fields": {"stopName": "Kostner & Lexington", "locationType": null, "stopDesc": null, "zoneId": null, "stopId": "166", "stopUrl": null, "stopCode": null, "lat": 41.871629, "parentStation": "", "lng": -87.735223, "wheelchairAccessible": null}}, {"pk": 133, "model": "gtfs.stop", "fields": {"stopName": "Fifth Avenue & Kostner", "locationType": null, "stopDesc": null, "zoneId": null, "stopId": "167", "stopUrl": null, "stopCode": null, "lat": 41.87026275, "parentStation": "", "lng": -87.73495185, "wheelchairAccessible": null}}, {"pk": 134, "model": "gtfs.stop", "fields": {"stopName": "Fifth Avenue & Kildare", "locationType": null, "stopDesc": null, "zoneId": null, "stopId": "168", "stopUrl": null, "stopCode": null, "lat": 41.87089987, "parentStation": "", "lng": -87.73270091, "wheelchairAccessible": null}}, {"pk": 135, "model": "gtfs.stop", "fields": {"stopName": "Fifth Avenue & Keeler", "locationType": null, "stopDesc": null, "zoneId": null, "stopId": "169", "stopUrl": null, "stopCode": null, "lat": 41.8716, "parentStation": "", "lng": -87.730102, "wheelchairAccessible": null}}, {"pk": 136, "model": "gtfs.stop", "fields": {"stopName": "Fifth Avenue & Karlov", "locationType": null, "stopDesc": null, "zoneId": null, "stopId": "170", "stopUrl": null, "stopCode": null, "lat": 41.872297, "parentStation": "", "lng": -87.727603, "wheelchairAccessible": null}}, {"pk": 137, "model": "gtfs.stop", "fields": {"stopName": "Fifth Avenue & Pulaski", "locationType": null, "stopDesc": null, "zoneId": null, "stopId": "171", "stopUrl": null, "stopCode": null, "lat": 41.87289549, "parentStation": "", "lng": -87.72557064, "wheelchairAccessible": null}}, {"pk": 138, "model": "gtfs.stop", "fields": {"stopName": "Harrison & Springfield", "locationType": null, "stopDesc": null, "zoneId": null, "stopId": "172", "stopUrl": null, "stopCode": null, "lat": 41.873419, "parentStation": "", "lng": -87.723087, "wheelchairAccessible": null}}, {"pk": 139, "model": "gtfs.stop", "fields": {"stopName": "Harrison & Independence", "locationType": null, "stopDesc": null, "zoneId": null, "stopId": "174", "stopUrl": null, "stopCode": null, "lat": 41.873457, "parentStation": "", "lng": -87.719565, "wheelchairAccessible": null}}, {"pk": 140, "model": "gtfs.stop", "fields": {"stopName": "Harrison & Lawndale", "locationType": null, "stopDesc": null, "zoneId": null, "stopId": "175", "stopUrl": null, "stopCode": null, "lat": 41.873469, "parentStation": "", "lng": -87.718216, "wheelchairAccessible": null}}, {"pk": 141, "model": "gtfs.stop", "fields": {"stopName": "Harrison & St. Louis", "locationType": null, "stopDesc": null, "zoneId": null, "stopId": "177", "stopUrl": null, "stopCode": null, "lat": 41.873541, "parentStation": "", "lng": -87.713327, "wheelchairAccessible": null}}, {"pk": 142, "model": "gtfs.stop", "fields": {"stopName": "Harrison & Homan", "locationType": null, "stopDesc": null, "zoneId": null, "stopId": "178", "stopUrl": null, "stopCode": null, "lat": 41.873566, "parentStation": "", "lng": -87.71088, "wheelchairAccessible": null}}, {"pk": 143, "model": "gtfs.stop", "fields": {"stopName": "Harrison & Spaulding", "locationType": null, "stopDesc": null, "zoneId": null, "stopId": "179", "stopUrl": null, "stopCode": null, "lat": 41.873602, "parentStation": "", "lng": -87.708461, "wheelchairAccessible": null}}, {"pk": 144, "model": "gtfs.stop", "fields": {"stopName": "Harrison & Albany", "locationType": null, "stopDesc": null, "zoneId": null, "stopId": "181", "stopUrl": null, "stopCode": null, "lat": 41.87365176, "parentStation": "", "lng": -87.70351379, "wheelchairAccessible": null}}, {"pk": 145, "model": "gtfs.stop", "fields": {"stopName": "Harrison & Sacramento", "locationType": null, "stopDesc": null, "zoneId": null, "stopId": "182", "stopUrl": null, "stopCode": null, "lat": 41.87368976, "parentStation": "", "lng": -87.70104879, "wheelchairAccessible": null}}, {"pk": 146, "model": "gtfs.stop", "fields": {"stopName": "Harrison & Francisco", "locationType": null, "stopDesc": null, "zoneId": null, "stopId": "183", "stopUrl": null, "stopCode": null, "lat": 41.873716, "parentStation": "", "lng": -87.698661, "wheelchairAccessible": null}}, {"pk": 147, "model": "gtfs.stop", "fields": {"stopName": "Harrison & Washtenaw", "locationType": null, "stopDesc": null, "zoneId": null, "stopId": "185", "stopUrl": null, "stopCode": null, "lat": 41.873755, "parentStation": "", "lng": -87.693779, "wheelchairAccessible": null}}, {"pk": 148, "model": "gtfs.stop", "fields": {"stopName": "Harrison & Maplewood ", "locationType": null, "stopDesc": null, "zoneId": null, "stopId": "186", "stopUrl": null, "stopCode": null, "lat": 41.873785, "parentStation": "", "lng": -87.690705, "wheelchairAccessible": null}}, {"pk": 149, "model": "gtfs.stop", "fields": {"stopName": "Harrison & Campbell", "locationType": null, "stopDesc": null, "zoneId": null, "stopId": "187", "stopUrl": null, "stopCode": null, "lat": 41.873804, "parentStation": "", "lng": -87.688797, "wheelchairAccessible": null}}, {"pk": 150, "model": "gtfs.stop", "fields": {"stopName": "Harrison & Western", "locationType": null, "stopDesc": null, "zoneId": null, "stopId": "188", "stopUrl": null, "stopCode": null, "lat": 41.87382334, "parentStation": "", "lng": -87.686408, "wheelchairAccessible": null}}, {"pk": 151, "model": "gtfs.stop", "fields": {"stopName": "Harrison & Oakley", "locationType": null, "stopDesc": null, "zoneId": null, "stopId": "189", "stopUrl": null, "stopCode": null, "lat": 41.873882, "parentStation": "", "lng": -87.683913, "wheelchairAccessible": null}}, {"pk": 152, "model": "gtfs.stop", "fields": {"stopName": "Harrison & Leavitt", "locationType": null, "stopDesc": null, "zoneId": null, "stopId": "190", "stopUrl": null, "stopCode": null, "lat": 41.873911, "parentStation": "", "lng": -87.681449, "wheelchairAccessible": null}}, {"pk": 153, "model": "gtfs.stop", "fields": {"stopName": "Harrison & Hoyne", "locationType": null, "stopDesc": null, "zoneId": null, "stopId": "191", "stopUrl": null, "stopCode": null, "lat": 41.87395, "parentStation": "", "lng": -87.67899, "wheelchairAccessible": null}}, {"pk": 154, "model": "gtfs.stop", "fields": {"stopName": "Harrison & Damen", "locationType": null, "stopDesc": null, "zoneId": null, "stopId": "192", "stopUrl": null, "stopCode": null, "lat": 41.87397341, "parentStation": "", "lng": -87.67659224, "wheelchairAccessible": null}}, {"pk": 155, "model": "gtfs.stop", "fields": {"stopName": "Harrison & Ashland", "locationType": null, "stopDesc": null, "zoneId": null, "stopId": "193", "stopUrl": null, "stopCode": null, "lat": 41.87410558, "parentStation": "", "lng": -87.6667937, "wheelchairAccessible": null}}, {"pk": 156, "model": "gtfs.stop", "fields": {"stopName": "Harrison & Laflin", "locationType": null, "stopDesc": null, "zoneId": null, "stopId": "194", "stopUrl": null, "stopCode": null, "lat": 41.874122, "parentStation": "", "lng": -87.664252, "wheelchairAccessible": null}}, {"pk": 157, "model": "gtfs.stop", "fields": {"stopName": "Harrison & Loomis", "locationType": null, "stopDesc": null, "zoneId": null, "stopId": "195", "stopUrl": null, "stopCode": null, "lat": 41.874138, "parentStation": "", "lng": -87.661926, "wheelchairAccessible": null}}, {"pk": 158, "model": "gtfs.stop", "fields": {"stopName": "1335 W Harrison", "locationType": null, "stopDesc": null, "zoneId": null, "stopId": "196", "stopUrl": null, "stopCode": null, "lat": 41.874142, "parentStation": "", "lng": -87.660176, "wheelchairAccessible": null}}, {"pk": 159, "model": "gtfs.stop", "fields": {"stopName": "1231 W Harrison", "locationType": null, "stopDesc": null, "zoneId": null, "stopId": "197", "stopUrl": null, "stopCode": null, "lat": 41.874128, "parentStation": "", "lng": -87.658412, "wheelchairAccessible": null}}, {"pk": 160, "model": "gtfs.stop", "fields": {"stopName": "Harrison & Racine", "locationType": null, "stopDesc": null, "zoneId": null, "stopId": "198", "stopUrl": null, "stopCode": null, "lat": 41.874191, "parentStation": "", "lng": -87.657167, "wheelchairAccessible": null}}, {"pk": 161, "model": "gtfs.stop", "fields": {"stopName": "1100 W Harrison", "locationType": null, "stopDesc": null, "zoneId": null, "stopId": "199", "stopUrl": null, "stopCode": null, "lat": 41.874231, "parentStation": "", "lng": -87.654349, "wheelchairAccessible": null}}, {"pk": 162, "model": "gtfs.stop", "fields": {"stopName": "Harrison & Morgan", "locationType": null, "stopDesc": null, "zoneId": null, "stopId": "200", "stopUrl": null, "stopCode": null, "lat": 41.874283, "parentStation": "", "lng": -87.651938, "wheelchairAccessible": null}}, {"pk": 163, "model": "gtfs.stop", "fields": {"stopName": "900 W Harrison", "locationType": null, "stopDesc": null, "zoneId": null, "stopId": "201", "stopUrl": null, "stopCode": null, "lat": 41.874341, "parentStation": "", "lng": -87.649132, "wheelchairAccessible": null}}, {"pk": 164, "model": "gtfs.stop", "fields": {"stopName": "Halsted & Harrison", "locationType": null, "stopDesc": null, "zoneId": null, "stopId": "202", "stopUrl": null, "stopCode": null, "lat": 41.87474629, "parentStation": "", "lng": -87.6470399, "wheelchairAccessible": null}}, {"pk": 165, "model": "gtfs.stop", "fields": {"stopName": "Halsted & Van Buren", "locationType": null, "stopDesc": null, "zoneId": null, "stopId": "203", "stopUrl": null, "stopCode": null, "lat": 41.876549, "parentStation": "", "lng": -87.647117, "wheelchairAccessible": null}}, {"pk": 166, "model": "gtfs.stop", "fields": {"stopName": "Halsted & Jackson", "locationType": null, "stopDesc": null, "zoneId": null, "stopId": "204", "stopUrl": null, "stopCode": null, "lat": 41.877832, "parentStation": "", "lng": -87.647165, "wheelchairAccessible": null}}, {"pk": 167, "model": "gtfs.stop", "fields": {"stopName": "UIC-Halsted Blue Line Station", "locationType": null, "stopDesc": null, "zoneId": null, "stopId": "205", "stopUrl": null, "stopCode": null, "lat": 41.8755, "parentStation": "", "lng": -87.647254, "wheelchairAccessible": null}}, {"pk": 168, "model": "gtfs.stop", "fields": {"stopName": "Harrison & Halsted", "locationType": null, "stopDesc": null, "zoneId": null, "stopId": "206", "stopUrl": null, "stopCode": null, "lat": 41.874441, "parentStation": "", "lng": -87.64775, "wheelchairAccessible": null}}, {"pk": 169, "model": "gtfs.stop", "fields": {"stopName": "900 W Harrison", "locationType": null, "stopDesc": null, "zoneId": null, "stopId": "207", "stopUrl": null, "stopCode": null, "lat": 41.87447761, "parentStation": "", "lng": -87.64986281, "wheelchairAccessible": null}}, {"pk": 170, "model": "gtfs.stop", "fields": {"stopName": "Harrison & Morgan", "locationType": null, "stopDesc": null, "zoneId": null, "stopId": "208", "stopUrl": null, "stopCode": null, "lat": 41.874463, "parentStation": "", "lng": -87.651583, "wheelchairAccessible": null}}, {"pk": 171, "model": "gtfs.stop", "fields": {"stopName": "1100 W Harrison", "locationType": null, "stopDesc": null, "zoneId": null, "stopId": "209", "stopUrl": null, "stopCode": null, "lat": 41.874376, "parentStation": "", "lng": -87.65445, "wheelchairAccessible": null}}, {"pk": 172, "model": "gtfs.stop", "fields": {"stopName": "Harrison & Racine", "locationType": null, "stopDesc": null, "zoneId": null, "stopId": "210", "stopUrl": null, "stopCode": null, "lat": 41.87433, "parentStation": "", "lng": -87.657447, "wheelchairAccessible": null}}, {"pk": 173, "model": "gtfs.stop", "fields": {"stopName": "1232 W Harrison", "locationType": null, "stopDesc": null, "zoneId": null, "stopId": "211", "stopUrl": null, "stopCode": null, "lat": 41.87432, "parentStation": "", "lng": -87.658436, "wheelchairAccessible": null}}, {"pk": 174, "model": "gtfs.stop", "fields": {"stopName": "1336 W Harrison", "locationType": null, "stopDesc": null, "zoneId": null, "stopId": "212", "stopUrl": null, "stopCode": null, "lat": 41.874335, "parentStation": "", "lng": -87.660199, "wheelchairAccessible": null}}, {"pk": 175, "model": "gtfs.stop", "fields": {"stopName": "Harrison & Loomis", "locationType": null, "stopDesc": null, "zoneId": null, "stopId": "213", "stopUrl": null, "stopCode": null, "lat": 41.874271, "parentStation": "", "lng": -87.661608, "wheelchairAccessible": null}}, {"pk": 176, "model": "gtfs.stop", "fields": {"stopName": "Harrison & Laflin", "locationType": null, "stopDesc": null, "zoneId": null, "stopId": "214", "stopUrl": null, "stopCode": null, "lat": 41.874251, "parentStation": "", "lng": -87.66414, "wheelchairAccessible": null}}, {"pk": 177, "model": "gtfs.stop", "fields": {"stopName": "Harrison & Ashland", "locationType": null, "stopDesc": null, "zoneId": null, "stopId": "215", "stopUrl": null, "stopCode": null, "lat": 41.87427625, "parentStation": "", "lng": -87.66636841, "wheelchairAccessible": null}}, {"pk": 178, "model": "gtfs.stop", "fields": {"stopName": "Harrison & Hoyne", "locationType": null, "stopDesc": null, "zoneId": null, "stopId": "216", "stopUrl": null, "stopCode": null, "lat": 41.874037, "parentStation": "", "lng": -87.678729, "wheelchairAccessible": null}}, {"pk": 179, "model": "gtfs.stop", "fields": {"stopName": "Harrison & Leavitt", "locationType": null, "stopDesc": null, "zoneId": null, "stopId": "217", "stopUrl": null, "stopCode": null, "lat": 41.874009, "parentStation": "", "lng": -87.681205, "wheelchairAccessible": null}}, {"pk": 180, "model": "gtfs.stop", "fields": {"stopName": "Harrison & Oakley", "locationType": null, "stopDesc": null, "zoneId": null, "stopId": "218", "stopUrl": null, "stopCode": null, "lat": 41.87398752, "parentStation": "", "lng": -87.68358895, "wheelchairAccessible": null}}, {"pk": 181, "model": "gtfs.stop", "fields": {"stopName": "Harrison & Western", "locationType": null, "stopDesc": null, "zoneId": null, "stopId": "219", "stopUrl": null, "stopCode": null, "lat": 41.87396137, "parentStation": "", "lng": -87.68600523, "wheelchairAccessible": null}}, {"pk": 182, "model": "gtfs.stop", "fields": {"stopName": "Harrison & Campbell", "locationType": null, "stopDesc": null, "zoneId": null, "stopId": "220", "stopUrl": null, "stopCode": null, "lat": 41.873922, "parentStation": "", "lng": -87.688543, "wheelchairAccessible": null}}, {"pk": 183, "model": "gtfs.stop", "fields": {"stopName": "Harrison & Maplewood ", "locationType": null, "stopDesc": null, "zoneId": null, "stopId": "221", "stopUrl": null, "stopCode": null, "lat": 41.873913, "parentStation": "", "lng": -87.690493, "wheelchairAccessible": null}}, {"pk": 184, "model": "gtfs.stop", "fields": {"stopName": "Harrison & Washtenaw", "locationType": null, "stopDesc": null, "zoneId": null, "stopId": "222", "stopUrl": null, "stopCode": null, "lat": 41.87385, "parentStation": "", "lng": -87.693579, "wheelchairAccessible": null}}, {"pk": 185, "model": "gtfs.stop", "fields": {"stopName": "Harrison & California", "locationType": null, "stopDesc": null, "zoneId": null, "stopId": "223", "stopUrl": null, "stopCode": null, "lat": 41.87385973, "parentStation": "", "lng": -87.69597837, "wheelchairAccessible": null}}, {"pk": 186, "model": "gtfs.stop", "fields": {"stopName": "Harrison & Francisco", "locationType": null, "stopDesc": null, "zoneId": null, "stopId": "224", "stopUrl": null, "stopCode": null, "lat": 41.873809, "parentStation": "", "lng": -87.698405, "wheelchairAccessible": null}}, {"pk": 187, "model": "gtfs.stop", "fields": {"stopName": "Harrison & Sacramento", "locationType": null, "stopDesc": null, "zoneId": null, "stopId": "225", "stopUrl": null, "stopCode": null, "lat": 41.87385863, "parentStation": "", "lng": -87.70085097, "wheelchairAccessible": null}}, {"pk": 188, "model": "gtfs.stop", "fields": {"stopName": "Harrison & Albany", "locationType": null, "stopDesc": null, "zoneId": null, "stopId": "226", "stopUrl": null, "stopCode": null, "lat": 41.87382263, "parentStation": "", "lng": -87.70329197, "wheelchairAccessible": null}}, {"pk": 189, "model": "gtfs.stop", "fields": {"stopName": "Harrison & Kedzie", "locationType": null, "stopDesc": null, "zoneId": null, "stopId": "227", "stopUrl": null, "stopCode": null, "lat": 41.8737524, "parentStation": "", "lng": -87.70571896, "wheelchairAccessible": null}}, {"pk": 190, "model": "gtfs.stop", "fields": {"stopName": "Congress & Kedzie", "locationType": null, "stopDesc": null, "zoneId": null, "stopId": "228", "stopUrl": null, "stopCode": null, "lat": 41.87496738, "parentStation": "", "lng": -87.70608349, "wheelchairAccessible": null}}, {"pk": 191, "model": "gtfs.stop", "fields": {"stopName": "Congress & Spaulding", "locationType": null, "stopDesc": null, "zoneId": null, "stopId": "229", "stopUrl": null, "stopCode": null, "lat": 41.87460174, "parentStation": "", "lng": -87.70823931, "wheelchairAccessible": null}}, {"pk": 192, "model": "gtfs.stop", "fields": {"stopName": "Congress & Homan", "locationType": null, "stopDesc": null, "zoneId": null, "stopId": "230", "stopUrl": null, "stopCode": null, "lat": 41.87459474, "parentStation": "", "lng": -87.71053731, "wheelchairAccessible": null}}, {"pk": 193, "model": "gtfs.stop", "fields": {"stopName": "Congress & St. Louis", "locationType": null, "stopDesc": null, "zoneId": null, "stopId": "231", "stopUrl": null, "stopCode": null, "lat": 41.87437666, "parentStation": "", "lng": -87.71239028, "wheelchairAccessible": null}}, {"pk": 194, "model": "gtfs.stop", "fields": {"stopName": "3700 W Congress", "locationType": null, "stopDesc": null, "zoneId": null, "stopId": "233", "stopUrl": null, "stopCode": null, "lat": 41.87452996, "parentStation": "", "lng": -87.71790509, "wheelchairAccessible": null}}, {"pk": 195, "model": "gtfs.stop", "fields": {"stopName": "Congress & Hamlin/Independence", "locationType": null, "stopDesc": null, "zoneId": null, "stopId": "234", "stopUrl": null, "stopCode": null, "lat": 41.87450949, "parentStation": "", "lng": -87.71961417, "wheelchairAccessible": null}}, {"pk": 196, "model": "gtfs.stop", "fields": {"stopName": "Congress & Springfield", "locationType": null, "stopDesc": null, "zoneId": null, "stopId": "235", "stopUrl": null, "stopCode": null, "lat": 41.874496, "parentStation": "", "lng": -87.722588, "wheelchairAccessible": null}}, {"pk": 197, "model": "gtfs.stop", "fields": {"stopName": "Congress & Karlov", "locationType": null, "stopDesc": null, "zoneId": null, "stopId": "237", "stopUrl": null, "stopCode": null, "lat": 41.87439868, "parentStation": "", "lng": -87.72774701, "wheelchairAccessible": null}}, {"pk": 198, "model": "gtfs.stop", "fields": {"stopName": "Congress & Kildare", "locationType": null, "stopDesc": null, "zoneId": null, "stopId": "239", "stopUrl": null, "stopCode": null, "lat": 41.87434644, "parentStation": "", "lng": -87.73270301, "wheelchairAccessible": null}}, {"pk": 199, "model": "gtfs.stop", "fields": {"stopName": "Harrison & Kostner", "locationType": null, "stopDesc": null, "zoneId": null, "stopId": "240", "stopUrl": null, "stopCode": null, "lat": 41.87377475, "parentStation": "", "lng": -87.73569932, "wheelchairAccessible": null}}, {"pk": 200, "model": "gtfs.stop", "fields": {"stopName": "Harrison & Kilbourn ", "locationType": null, "stopDesc": null, "zoneId": null, "stopId": "241", "stopUrl": null, "stopCode": null, "lat": 41.87334431, "parentStation": "", "lng": -87.73746946, "wheelchairAccessible": null}}, {"pk": 201, "model": "gtfs.stop", "fields": {"stopName": "Harrison & Kolmar ", "locationType": null, "stopDesc": null, "zoneId": null, "stopId": "242", "stopUrl": null, "stopCode": null, "lat": 41.87330223, "parentStation": "", "lng": -87.73913875, "wheelchairAccessible": null}}, {"pk": 202, "model": "gtfs.stop", "fields": {"stopName": "4630 W Harrison", "locationType": null, "stopDesc": null, "zoneId": null, "stopId": "243", "stopUrl": null, "stopCode": null, "lat": 41.87324864, "parentStation": "", "lng": -87.74082431, "wheelchairAccessible": null}}, {"pk": 203, "model": "gtfs.stop", "fields": {"stopName": "Harrison & Kilpatrick", "locationType": null, "stopDesc": null, "zoneId": null, "stopId": "244", "stopUrl": null, "stopCode": null, "lat": 41.87319817, "parentStation": "", "lng": -87.7424164, "wheelchairAccessible": null}}, {"pk": 204, "model": "gtfs.stop", "fields": {"stopName": "Harrison & Lavergne", "locationType": null, "stopDesc": null, "zoneId": null, "stopId": "246", "stopUrl": null, "stopCode": null, "lat": 41.87307396, "parentStation": "", "lng": -87.74898757, "wheelchairAccessible": null}}, {"pk": 205, "model": "gtfs.stop", "fields": {"stopName": "Harrison & Leamington", "locationType": null, "stopDesc": null, "zoneId": null, "stopId": "247", "stopUrl": null, "stopCode": null, "lat": 41.87305352, "parentStation": "", "lng": -87.75320123, "wheelchairAccessible": null}}, {"pk": 206, "model": "gtfs.stop", "fields": {"stopName": "Harrison & Laramie", "locationType": null, "stopDesc": null, "zoneId": null, "stopId": "248", "stopUrl": null, "stopCode": null, "lat": 41.8730184, "parentStation": "", "lng": -87.75465067, "wheelchairAccessible": null}}, {"pk": 207, "model": "gtfs.stop", "fields": {"stopName": "Harrison & Lockwood", "locationType": null, "stopDesc": null, "zoneId": null, "stopId": "249", "stopUrl": null, "stopCode": null, "lat": 41.87295351, "parentStation": "", "lng": -87.75730323, "wheelchairAccessible": null}}, {"pk": 208, "model": "gtfs.stop", "fields": {"stopName": "5400 W Harrison", "locationType": null, "stopDesc": null, "zoneId": null, "stopId": "250", "stopUrl": null, "stopCode": null, "lat": 41.87295262, "parentStation": "", "lng": -87.75948024, "wheelchairAccessible": null}}, {"pk": 209, "model": "gtfs.stop", "fields": {"stopName": "Harrison & Central", "locationType": null, "stopDesc": null, "zoneId": null, "stopId": "252", "stopUrl": null, "stopCode": null, "lat": 41.87292396, "parentStation": "", "lng": -87.76447722, "wheelchairAccessible": null}}, {"pk": 210, "model": "gtfs.stop", "fields": {"stopName": "5500 W Roosevelt", "locationType": null, "stopDesc": null, "zoneId": null, "stopId": "257", "stopUrl": null, "stopCode": null, "lat": 41.86555077, "parentStation": "", "lng": -87.76277284, "wheelchairAccessible": null}}, {"pk": 211, "model": "gtfs.stop", "fields": {"stopName": "Roosevelt & 54th Avenue", "locationType": null, "stopDesc": null, "zoneId": null, "stopId": "258", "stopUrl": null, "stopCode": null, "lat": 41.86559297, "parentStation": "", "lng": -87.75945922, "wheelchairAccessible": null}}, {"pk": 212, "model": "gtfs.stop", "fields": {"stopName": "5300 W. Roosevelt", "locationType": null, "stopDesc": null, "zoneId": null, "stopId": "259", "stopUrl": null, "stopCode": null, "lat": 41.86564938, "parentStation": "", "lng": -87.75705277, "wheelchairAccessible": null}}, {"pk": 213, "model": "gtfs.stop", "fields": {"stopName": "Roosevelt & Laramie", "locationType": null, "stopDesc": null, "zoneId": null, "stopId": "260", "stopUrl": null, "stopCode": null, "lat": 41.86564859, "parentStation": "", "lng": -87.75467392, "wheelchairAccessible": null}}, {"pk": 214, "model": "gtfs.stop", "fields": {"stopName": "Roosevelt & 51st Avenue", "locationType": null, "stopDesc": null, "zoneId": null, "stopId": "261", "stopUrl": null, "stopCode": null, "lat": 41.86573504, "parentStation": "", "lng": -87.75213825, "wheelchairAccessible": null}}, {"pk": 215, "model": "gtfs.stop", "fields": {"stopName": "Roosevelt & 50th Avenue", "locationType": null, "stopDesc": null, "zoneId": null, "stopId": "262", "stopUrl": null, "stopCode": null, "lat": 41.86574977, "parentStation": "", "lng": -87.74975926, "wheelchairAccessible": null}}, {"pk": 216, "model": "gtfs.stop", "fields": {"stopName": "Roosevelt & 49th Avenue", "locationType": null, "stopDesc": null, "zoneId": null, "stopId": "263", "stopUrl": null, "stopCode": null, "lat": 41.86578791, "parentStation": "", "lng": -87.74732747, "wheelchairAccessible": null}}, {"pk": 217, "model": "gtfs.stop", "fields": {"stopName": "Roosevelt & 47th Avenue", "locationType": null, "stopDesc": null, "zoneId": null, "stopId": "265", "stopUrl": null, "stopCode": null, "lat": 41.86585838, "parentStation": "", "lng": -87.74241065, "wheelchairAccessible": null}}, {"pk": 218, "model": "gtfs.stop", "fields": {"stopName": "Roosevelt & Kilbourn", "locationType": null, "stopDesc": null, "zoneId": null, "stopId": "268", "stopUrl": null, "stopCode": null, "lat": 41.8659273, "parentStation": "", "lng": -87.73749989, "wheelchairAccessible": null}}, {"pk": 219, "model": "gtfs.stop", "fields": {"stopName": "Roosevelt & Kildare", "locationType": null, "stopDesc": null, "zoneId": null, "stopId": "270", "stopUrl": null, "stopCode": null, "lat": 41.86599795, "parentStation": "", "lng": -87.73259722, "wheelchairAccessible": null}}, {"pk": 220, "model": "gtfs.stop", "fields": {"stopName": "Roosevelt & Karlov", "locationType": null, "stopDesc": null, "zoneId": null, "stopId": "272", "stopUrl": null, "stopCode": null, "lat": 41.866075, "parentStation": "", "lng": -87.727721, "wheelchairAccessible": null}}, {"pk": 221, "model": "gtfs.stop", "fields": {"stopName": "Roosevelt & Springfield", "locationType": null, "stopDesc": null, "zoneId": null, "stopId": "274", "stopUrl": null, "stopCode": null, "lat": 41.86611509, "parentStation": "", "lng": -87.72282126, "wheelchairAccessible": null}}, {"pk": 222, "model": "gtfs.stop", "fields": {"stopName": "Roosevelt & Independence", "locationType": null, "stopDesc": null, "zoneId": null, "stopId": "275", "stopUrl": null, "stopCode": null, "lat": 41.86614847, "parentStation": "", "lng": -87.72026246, "wheelchairAccessible": null}}, {"pk": 223, "model": "gtfs.stop", "fields": {"stopName": "Roosevelt & Lawndale", "locationType": null, "stopDesc": null, "zoneId": null, "stopId": "277", "stopUrl": null, "stopCode": null, "lat": 41.86617777, "parentStation": "", "lng": -87.71794192, "wheelchairAccessible": null}}, {"pk": 224, "model": "gtfs.stop", "fields": {"stopName": "Roosevelt & Central Park", "locationType": null, "stopDesc": null, "zoneId": null, "stopId": "278", "stopUrl": null, "stopCode": null, "lat": 41.86620404, "parentStation": "", "lng": -87.71563462, "wheelchairAccessible": null}}, {"pk": 225, "model": "gtfs.stop", "fields": {"stopName": "Roosevelt & St. Louis", "locationType": null, "stopDesc": null, "zoneId": null, "stopId": "279", "stopUrl": null, "stopCode": null, "lat": 41.866258, "parentStation": "", "lng": -87.713081, "wheelchairAccessible": null}}, {"pk": 226, "model": "gtfs.stop", "fields": {"stopName": "Roosevelt & Albany", "locationType": null, "stopDesc": null, "zoneId": null, "stopId": "283", "stopUrl": null, "stopCode": null, "lat": 41.86634562, "parentStation": "", "lng": -87.703247, "wheelchairAccessible": null}}, {"pk": 227, "model": "gtfs.stop", "fields": {"stopName": "Roosevelt & Sacramento", "locationType": null, "stopDesc": null, "zoneId": null, "stopId": "284", "stopUrl": null, "stopCode": null, "lat": 41.8663703, "parentStation": "", "lng": -87.7009535, "wheelchairAccessible": null}}, {"pk": 228, "model": "gtfs.stop", "fields": {"stopName": "Roosevelt & Francisco", "locationType": null, "stopDesc": null, "zoneId": null, "stopId": "285", "stopUrl": null, "stopCode": null, "lat": 41.866419, "parentStation": "", "lng": -87.698427, "wheelchairAccessible": null}}, {"pk": 229, "model": "gtfs.stop", "fields": {"stopName": "Roosevelt & Washtenaw", "locationType": null, "stopDesc": null, "zoneId": null, "stopId": "287", "stopUrl": null, "stopCode": null, "lat": 41.866475, "parentStation": "", "lng": -87.693527, "wheelchairAccessible": null}}, {"pk": 230, "model": "gtfs.stop", "fields": {"stopName": "Roosevelt & Talman", "locationType": null, "stopDesc": null, "zoneId": null, "stopId": "288", "stopUrl": null, "stopCode": null, "lat": 41.866485, "parentStation": "", "lng": -87.692302, "wheelchairAccessible": null}}, {"pk": 231, "model": "gtfs.stop", "fields": {"stopName": "Roosevelt & Wolcott", "locationType": null, "stopDesc": null, "zoneId": null, "stopId": "296", "stopUrl": null, "stopCode": null, "lat": 41.86662475, "parentStation": "", "lng": -87.6735674, "wheelchairAccessible": null}}, {"pk": 232, "model": "gtfs.stop", "fields": {"stopName": "Roosevelt & Wood", "locationType": null, "stopDesc": null, "zoneId": null, "stopId": "297", "stopUrl": null, "stopCode": null, "lat": 41.86664343, "parentStation": "", "lng": -87.67146821, "wheelchairAccessible": null}}, {"pk": 233, "model": "gtfs.stop", "fields": {"stopName": "Roosevelt & Paulina", "locationType": null, "stopDesc": null, "zoneId": null, "stopId": "298", "stopUrl": null, "stopCode": null, "lat": 41.86669057, "parentStation": "", "lng": -87.66900774, "wheelchairAccessible": null}}, {"pk": 234, "model": "gtfs.stop", "fields": {"stopName": "Roosevelt & Laflin", "locationType": null, "stopDesc": null, "zoneId": null, "stopId": "300", "stopUrl": null, "stopCode": null, "lat": 41.86676743, "parentStation": "", "lng": -87.66409989, "wheelchairAccessible": null}}, {"pk": 235, "model": "gtfs.stop", "fields": {"stopName": "Roosevelt & Throop", "locationType": null, "stopDesc": null, "zoneId": null, "stopId": "302", "stopUrl": null, "stopCode": null, "lat": 41.86684613, "parentStation": "", "lng": -87.65925658, "wheelchairAccessible": null}}, {"pk": 236, "model": "gtfs.stop", "fields": {"stopName": "Roosevelt & Racine", "locationType": null, "stopDesc": null, "zoneId": null, "stopId": "303", "stopUrl": null, "stopCode": null, "lat": 41.86688693, "parentStation": "", "lng": -87.65681615, "wheelchairAccessible": null}}, {"pk": 237, "model": "gtfs.stop", "fields": {"stopName": "Roosevelt & Blue Island", "locationType": null, "stopDesc": null, "zoneId": null, "stopId": "305", "stopUrl": null, "stopCode": null, "lat": 41.86693795, "parentStation": "", "lng": -87.65360529, "wheelchairAccessible": null}}, {"pk": 238, "model": "gtfs.stop", "fields": {"stopName": "Roosevelt & Morgan", "locationType": null, "stopDesc": null, "zoneId": null, "stopId": "306", "stopUrl": null, "stopCode": null, "lat": 41.86702954, "parentStation": "", "lng": -87.65122372, "wheelchairAccessible": null}}, {"pk": 239, "model": "gtfs.stop", "fields": {"stopName": "900 E Roosevelt", "locationType": null, "stopDesc": null, "zoneId": null, "stopId": "307", "stopUrl": null, "stopCode": null, "lat": 41.86700611, "parentStation": "", "lng": -87.64940554, "wheelchairAccessible": null}}, {"pk": 240, "model": "gtfs.stop", "fields": {"stopName": "Roosevelt & Jefferson", "locationType": null, "stopDesc": null, "zoneId": null, "stopId": "310", "stopUrl": null, "stopCode": null, "lat": 41.86711861, "parentStation": "", "lng": -87.64227064, "wheelchairAccessible": null}}, {"pk": 241, "model": "gtfs.stop", "fields": {"stopName": "Roosevelt & Canal", "locationType": null, "stopDesc": null, "zoneId": null, "stopId": "312", "stopUrl": null, "stopCode": null, "lat": 41.86713891, "parentStation": "", "lng": -87.63882598, "wheelchairAccessible": null}}, {"pk": 242, "model": "gtfs.stop", "fields": {"stopName": "327 W Roosevelt", "locationType": null, "stopDesc": null, "zoneId": null, "stopId": "313", "stopUrl": null, "stopCode": null, "lat": 41.86718878, "parentStation": "", "lng": -87.63557243, "wheelchairAccessible": null}}, {"pk": 243, "model": "gtfs.stop", "fields": {"stopName": "Roosevelt & Clark", "locationType": null, "stopDesc": null, "zoneId": null, "stopId": "315", "stopUrl": null, "stopCode": null, "lat": 41.86723861, "parentStation": "", "lng": -87.63060611, "wheelchairAccessible": null}}, {"pk": 244, "model": "gtfs.stop", "fields": {"stopName": "Roosevelt & State", "locationType": null, "stopDesc": null, "zoneId": null, "stopId": "316", "stopUrl": null, "stopCode": null, "lat": 41.86728699, "parentStation": "", "lng": -87.62711056, "wheelchairAccessible": null}}, {"pk": 245, "model": "gtfs.stop", "fields": {"stopName": "Roosevelt & Michigan", "locationType": null, "stopDesc": null, "zoneId": null, "stopId": "318", "stopUrl": null, "stopCode": null, "lat": 41.867333, "parentStation": "", "lng": -87.624345, "wheelchairAccessible": null}}, {"pk": 246, "model": "gtfs.stop", "fields": {"stopName": "327 W Roosevelt", "locationType": null, "stopDesc": null, "zoneId": null, "stopId": "326", "stopUrl": null, "stopCode": null, "lat": 41.86741626, "parentStation": "", "lng": -87.6355436, "wheelchairAccessible": null}}, {"pk": 247, "model": "gtfs.stop", "fields": {"stopName": "Roosevelt & Canal", "locationType": null, "stopDesc": null, "zoneId": null, "stopId": "327", "stopUrl": null, "stopCode": null, "lat": 41.86740019, "parentStation": "", "lng": -87.63905542, "wheelchairAccessible": null}}, {"pk": 248, "model": "gtfs.stop", "fields": {"stopName": "Roosevelt & Clinton", "locationType": null, "stopDesc": null, "zoneId": null, "stopId": "328", "stopUrl": null, "stopCode": null, "lat": 41.86735198, "parentStation": "", "lng": -87.64057609, "wheelchairAccessible": null}}, {"pk": 249, "model": "gtfs.stop", "fields": {"stopName": "Roosevelt & Jefferson", "locationType": null, "stopDesc": null, "zoneId": null, "stopId": "329", "stopUrl": null, "stopCode": null, "lat": 41.86732793, "parentStation": "", "lng": -87.64204071, "wheelchairAccessible": null}}, {"pk": 250, "model": "gtfs.stop", "fields": {"stopName": "Roosevelt & Halsted", "locationType": null, "stopDesc": null, "zoneId": null, "stopId": "331", "stopUrl": null, "stopCode": null, "lat": 41.86727379, "parentStation": "", "lng": -87.64654307, "wheelchairAccessible": null}}, {"pk": 251, "model": "gtfs.stop", "fields": {"stopName": "900 W Roosevelt", "locationType": null, "stopDesc": null, "zoneId": null, "stopId": "332", "stopUrl": null, "stopCode": null, "lat": 41.86721921, "parentStation": "", "lng": -87.64943144, "wheelchairAccessible": null}}, {"pk": 252, "model": "gtfs.stop", "fields": {"stopName": "Roosevelt & Morgan", "locationType": null, "stopDesc": null, "zoneId": null, "stopId": "333", "stopUrl": null, "stopCode": null, "lat": 41.86718872, "parentStation": "", "lng": -87.65089349, "wheelchairAccessible": null}}, {"pk": 253, "model": "gtfs.stop", "fields": {"stopName": "Roosevelt & Blue Island", "locationType": null, "stopDesc": null, "zoneId": null, "stopId": "334", "stopUrl": null, "stopCode": null, "lat": 41.8671672, "parentStation": "", "lng": -87.65307965, "wheelchairAccessible": null}}, {"pk": 254, "model": "gtfs.stop", "fields": {"stopName": "Roosevelt & May", "locationType": null, "stopDesc": null, "zoneId": null, "stopId": "335", "stopUrl": null, "stopCode": null, "lat": 41.86711341, "parentStation": "", "lng": -87.65499111, "wheelchairAccessible": null}}, {"pk": 255, "model": "gtfs.stop", "fields": {"stopName": "Roosevelt & Racine", "locationType": null, "stopDesc": null, "zoneId": null, "stopId": "336", "stopUrl": null, "stopCode": null, "lat": 41.86710533, "parentStation": "", "lng": -87.65651505, "wheelchairAccessible": null}}, {"pk": 256, "model": "gtfs.stop", "fields": {"stopName": "Roosevelt & Throop", "locationType": null, "stopDesc": null, "zoneId": null, "stopId": "337", "stopUrl": null, "stopCode": null, "lat": 41.86706609, "parentStation": "", "lng": -87.65903469, "wheelchairAccessible": null}}, {"pk": 257, "model": "gtfs.stop", "fields": {"stopName": "Roosevelt & Ashland", "locationType": null, "stopDesc": null, "zoneId": null, "stopId": "340", "stopUrl": null, "stopCode": null, "lat": 41.86695091, "parentStation": "", "lng": -87.66619588, "wheelchairAccessible": null}}, {"pk": 258, "model": "gtfs.stop", "fields": {"stopName": "Roosevelt & Paulina", "locationType": null, "stopDesc": null, "zoneId": null, "stopId": "341", "stopUrl": null, "stopCode": null, "lat": 41.86702876, "parentStation": "", "lng": -87.66879274, "wheelchairAccessible": null}}, {"pk": 259, "model": "gtfs.stop", "fields": {"stopName": "Roosevelt & Wood", "locationType": null, "stopDesc": null, "zoneId": null, "stopId": "342", "stopUrl": null, "stopCode": null, "lat": 41.86700369, "parentStation": "", "lng": -87.67112322, "wheelchairAccessible": null}}, {"pk": 260, "model": "gtfs.stop", "fields": {"stopName": "Roosevelt & Wolcott", "locationType": null, "stopDesc": null, "zoneId": null, "stopId": "343", "stopUrl": null, "stopCode": null, "lat": 41.86695936, "parentStation": "", "lng": -87.67353822, "wheelchairAccessible": null}}, {"pk": 261, "model": "gtfs.stop", "fields": {"stopName": "Roosevelt & Damen", "locationType": null, "stopDesc": null, "zoneId": null, "stopId": "344", "stopUrl": null, "stopCode": null, "lat": 41.86693534, "parentStation": "", "lng": -87.67595278, "wheelchairAccessible": null}}, {"pk": 262, "model": "gtfs.stop", "fields": {"stopName": "Roosevelt & Western", "locationType": null, "stopDesc": null, "zoneId": null, "stopId": "348", "stopUrl": null, "stopCode": null, "lat": 41.86671595, "parentStation": "", "lng": -87.68585449, "wheelchairAccessible": null}}, {"pk": 263, "model": "gtfs.stop", "fields": {"stopName": "Roosevelt & Campbell ", "locationType": null, "stopDesc": null, "zoneId": null, "stopId": "349", "stopUrl": null, "stopCode": null, "lat": 41.86668409, "parentStation": "", "lng": -87.68877572, "wheelchairAccessible": null}}, {"pk": 264, "model": "gtfs.stop", "fields": {"stopName": "Roosevelt & Talman", "locationType": null, "stopDesc": null, "zoneId": null, "stopId": "350", "stopUrl": null, "stopCode": null, "lat": 41.86659701, "parentStation": "", "lng": -87.692167, "wheelchairAccessible": null}}, {"pk": 265, "model": "gtfs.stop", "fields": {"stopName": "Roosevelt & Washtenaw", "locationType": null, "stopDesc": null, "zoneId": null, "stopId": "351", "stopUrl": null, "stopCode": null, "lat": 41.86663483, "parentStation": "", "lng": -87.6933021, "wheelchairAccessible": null}}, {"pk": 266, "model": "gtfs.stop", "fields": {"stopName": "Roosevelt & Francisco", "locationType": null, "stopDesc": null, "zoneId": null, "stopId": "353", "stopUrl": null, "stopCode": null, "lat": 41.86656508, "parentStation": "", "lng": -87.69825112, "wheelchairAccessible": null}}, {"pk": 267, "model": "gtfs.stop", "fields": {"stopName": "Roosevelt & Sacramento", "locationType": null, "stopDesc": null, "zoneId": null, "stopId": "354", "stopUrl": null, "stopCode": null, "lat": 41.86653975, "parentStation": "", "lng": -87.70064598, "wheelchairAccessible": null}}, {"pk": 268, "model": "gtfs.stop", "fields": {"stopName": "Roosevelt & Albany", "locationType": null, "stopDesc": null, "zoneId": null, "stopId": "355", "stopUrl": null, "stopCode": null, "lat": 41.86651191, "parentStation": "", "lng": -87.70314478, "wheelchairAccessible": null}}, {"pk": 269, "model": "gtfs.stop", "fields": {"stopName": "Roosevelt & Kedzie", "locationType": null, "stopDesc": null, "zoneId": null, "stopId": "356", "stopUrl": null, "stopCode": null, "lat": 41.86650058, "parentStation": "", "lng": -87.70540269, "wheelchairAccessible": null}}, {"pk": 270, "model": "gtfs.stop", "fields": {"stopName": "Roosevelt & Spaulding", "locationType": null, "stopDesc": null, "zoneId": null, "stopId": "357", "stopUrl": null, "stopCode": null, "lat": 41.86644971, "parentStation": "", "lng": -87.70792594, "wheelchairAccessible": null}}, {"pk": 271, "model": "gtfs.stop", "fields": {"stopName": "Roosevelt & Homan", "locationType": null, "stopDesc": null, "zoneId": null, "stopId": "358", "stopUrl": null, "stopCode": null, "lat": 41.86641794, "parentStation": "", "lng": -87.71026976, "wheelchairAccessible": null}}, {"pk": 272, "model": "gtfs.stop", "fields": {"stopName": "Roosevelt & St. Louis", "locationType": null, "stopDesc": null, "zoneId": null, "stopId": "359", "stopUrl": null, "stopCode": null, "lat": 41.86640459, "parentStation": "", "lng": -87.71287363, "wheelchairAccessible": null}}, {"pk": 273, "model": "gtfs.stop", "fields": {"stopName": "Roosevelt & Lawndale", "locationType": null, "stopDesc": null, "zoneId": null, "stopId": "361", "stopUrl": null, "stopCode": null, "lat": 41.86634534, "parentStation": "", "lng": -87.71776518, "wheelchairAccessible": null}}, {"pk": 274, "model": "gtfs.stop", "fields": {"stopName": "Roosevelt & Independence", "locationType": null, "stopDesc": null, "zoneId": null, "stopId": "362", "stopUrl": null, "stopCode": null, "lat": 41.86632553, "parentStation": "", "lng": -87.71938526, "wheelchairAccessible": null}}, {"pk": 275, "model": "gtfs.stop", "fields": {"stopName": "Roosevelt & Springfield", "locationType": null, "stopDesc": null, "zoneId": null, "stopId": "364", "stopUrl": null, "stopCode": null, "lat": 41.86628473, "parentStation": "", "lng": -87.72265925, "wheelchairAccessible": null}}, {"pk": 276, "model": "gtfs.stop", "fields": {"stopName": "Roosevelt & Pulaski", "locationType": null, "stopDesc": null, "zoneId": null, "stopId": "365", "stopUrl": null, "stopCode": null, "lat": 41.86625401, "parentStation": "", "lng": -87.72504075, "wheelchairAccessible": null}}, {"pk": 277, "model": "gtfs.stop", "fields": {"stopName": "Roosevelt & Karlov", "locationType": null, "stopDesc": null, "zoneId": null, "stopId": "366", "stopUrl": null, "stopCode": null, "lat": 41.86620917, "parentStation": "", "lng": -87.72754305, "wheelchairAccessible": null}}, {"pk": 278, "model": "gtfs.stop", "fields": {"stopName": "Roosevelt & Keeler", "locationType": null, "stopDesc": null, "zoneId": null, "stopId": "367", "stopUrl": null, "stopCode": null, "lat": 41.86618436, "parentStation": "", "lng": -87.72995235, "wheelchairAccessible": null}}, {"pk": 279, "model": "gtfs.stop", "fields": {"stopName": "Roosevelt & Kildare", "locationType": null, "stopDesc": null, "zoneId": null, "stopId": "368", "stopUrl": null, "stopCode": null, "lat": 41.86612304, "parentStation": "", "lng": -87.73235721, "wheelchairAccessible": null}}, {"pk": 280, "model": "gtfs.stop", "fields": {"stopName": "Roosevelt & Kostner", "locationType": null, "stopDesc": null, "zoneId": null, "stopId": "369", "stopUrl": null, "stopCode": null, "lat": 41.86610406, "parentStation": "", "lng": -87.73479765, "wheelchairAccessible": null}}, {"pk": 281, "model": "gtfs.stop", "fields": {"stopName": "Roosevelt & 47th Avenue", "locationType": null, "stopDesc": null, "zoneId": null, "stopId": "373", "stopUrl": null, "stopCode": null, "lat": 41.86601816, "parentStation": "", "lng": -87.7422535, "wheelchairAccessible": null}}, {"pk": 282, "model": "gtfs.stop", "fields": {"stopName": "Roosevelt & 49th Avenue", "locationType": null, "stopDesc": null, "zoneId": null, "stopId": "375", "stopUrl": null, "stopCode": null, "lat": 41.86593304, "parentStation": "", "lng": -87.74702963, "wheelchairAccessible": null}}, {"pk": 283, "model": "gtfs.stop", "fields": {"stopName": "Roosevelt & 50th Avenue", "locationType": null, "stopDesc": null, "zoneId": null, "stopId": "376", "stopUrl": null, "stopCode": null, "lat": 41.86590245, "parentStation": "", "lng": -87.74946275, "wheelchairAccessible": null}}, {"pk": 284, "model": "gtfs.stop", "fields": {"stopName": "Roosevelt & 51st Avenue", "locationType": null, "stopDesc": null, "zoneId": null, "stopId": "377", "stopUrl": null, "stopCode": null, "lat": 41.86584906, "parentStation": "", "lng": -87.75203042, "wheelchairAccessible": null}}, {"pk": 285, "model": "gtfs.stop", "fields": {"stopName": "5300 W Roosevelt", "locationType": null, "stopDesc": null, "zoneId": null, "stopId": "379", "stopUrl": null, "stopCode": null, "lat": 41.86581474, "parentStation": "", "lng": -87.7570127, "wheelchairAccessible": null}}, {"pk": 286, "model": "gtfs.stop", "fields": {"stopName": "Roosevelt & 54th Avenue", "locationType": null, "stopDesc": null, "zoneId": null, "stopId": "380", "stopUrl": null, "stopCode": null, "lat": 41.86576771, "parentStation": "", "lng": -87.75926107, "wheelchairAccessible": null}}, {"pk": 287, "model": "gtfs.stop", "fields": {"stopName": "5500 W Roosevelt", "locationType": null, "stopDesc": null, "zoneId": null, "stopId": "381", "stopUrl": null, "stopCode": null, "lat": 41.86571503, "parentStation": "", "lng": -87.7620988, "wheelchairAccessible": null}}, {"pk": 288, "model": "gtfs.stop", "fields": {"stopName": "Roosevelt & Central", "locationType": null, "stopDesc": null, "zoneId": null, "stopId": "382", "stopUrl": null, "stopCode": null, "lat": 41.86566632, "parentStation": "", "lng": -87.76416931, "wheelchairAccessible": null}}, {"pk": 289, "model": "gtfs.stop", "fields": {"stopName": "Madison & Austin Terminal", "locationType": null, "stopDesc": null, "zoneId": null, "stopId": "386", "stopUrl": null, "stopCode": null, "lat": 41.880313, "parentStation": "", "lng": -87.774043, "wheelchairAccessible": null}}, {"pk": 290, "model": "gtfs.stop", "fields": {"stopName": "Madison & Mayfield", "locationType": null, "stopDesc": null, "zoneId": null, "stopId": "388", "stopUrl": null, "stopCode": null, "lat": 41.88000915, "parentStation": "", "lng": -87.7714723, "wheelchairAccessible": null}}, {"pk": 291, "model": "gtfs.stop", "fields": {"stopName": "Madison & Menard", "locationType": null, "stopDesc": null, "zoneId": null, "stopId": "389", "stopUrl": null, "stopCode": null, "lat": 41.88008776, "parentStation": "", "lng": -87.76992191, "wheelchairAccessible": null}}, {"pk": 292, "model": "gtfs.stop", "fields": {"stopName": "Madison & Waller", "locationType": null, "stopDesc": null, "zoneId": null, "stopId": "390", "stopUrl": null, "stopCode": null, "lat": 41.88010476, "parentStation": "", "lng": -87.76821491, "wheelchairAccessible": null}}, {"pk": 293, "model": "gtfs.stop", "fields": {"stopName": "Madison & Parkside", "locationType": null, "stopDesc": null, "zoneId": null, "stopId": "391", "stopUrl": null, "stopCode": null, "lat": 41.88014676, "parentStation": "", "lng": -87.76661691, "wheelchairAccessible": null}}, {"pk": 294, "model": "gtfs.stop", "fields": {"stopName": "Madison & Pine", "locationType": null, "stopDesc": null, "zoneId": null, "stopId": "393", "stopUrl": null, "stopCode": null, "lat": 41.88018349, "parentStation": "", "lng": -87.7632177, "wheelchairAccessible": null}}, {"pk": 295, "model": "gtfs.stop", "fields": {"stopName": "Madison & Lotus ", "locationType": null, "stopDesc": null, "zoneId": null, "stopId": "394", "stopUrl": null, "stopCode": null, "lat": 41.88020276, "parentStation": "", "lng": -87.76191891, "wheelchairAccessible": null}}, {"pk": 296, "model": "gtfs.stop", "fields": {"stopName": "Madison & Long", "locationType": null, "stopDesc": null, "zoneId": null, "stopId": "395", "stopUrl": null, "stopCode": null, "lat": 41.88019981, "parentStation": "", "lng": -87.75996715, "wheelchairAccessible": null}}, {"pk": 297, "model": "gtfs.stop", "fields": {"stopName": "Madison & Lockwood ", "locationType": null, "stopDesc": null, "zoneId": null, "stopId": "396", "stopUrl": null, "stopCode": null, "lat": 41.88025187, "parentStation": "", "lng": -87.75778965, "wheelchairAccessible": null}}, {"pk": 298, "model": "gtfs.stop", "fields": {"stopName": "Madison & Laramie", "locationType": null, "stopDesc": null, "zoneId": null, "stopId": "397", "stopUrl": null, "stopCode": null, "lat": 41.88027, "parentStation": "", "lng": -87.75526, "wheelchairAccessible": null}}, {"pk": 299, "model": "gtfs.stop", "fields": {"stopName": "Madison & Kilpatrick", "locationType": null, "stopDesc": null, "zoneId": null, "stopId": "402", "stopUrl": null, "stopCode": null, "lat": 41.880443, "parentStation": "", "lng": -87.742998, "wheelchairAccessible": null}}, {"pk": 300, "model": "gtfs.stop", "fields": {"stopName": "Madison & Kenton", "locationType": null, "stopDesc": null, "zoneId": null, "stopId": "403", "stopUrl": null, "stopCode": null, "lat": 41.880475, "parentStation": "", "lng": -87.740705, "wheelchairAccessible": null}}, {"pk": 301, "model": "gtfs.stop", "fields": {"stopName": "Madison & Kildare", "locationType": null, "stopDesc": null, "zoneId": null, "stopId": "406", "stopUrl": null, "stopCode": null, "lat": 41.88053063, "parentStation": "", "lng": -87.7331241, "wheelchairAccessible": null}}, {"pk": 302, "model": "gtfs.stop", "fields": {"stopName": "Madison & Pulaski", "locationType": null, "stopDesc": null, "zoneId": null, "stopId": "409", "stopUrl": null, "stopCode": null, "lat": 41.88061422, "parentStation": "", "lng": -87.72582347, "wheelchairAccessible": null}}, {"pk": 303, "model": "gtfs.stop", "fields": {"stopName": "Madison & Springfield", "locationType": null, "stopDesc": null, "zoneId": null, "stopId": "410", "stopUrl": null, "stopCode": null, "lat": 41.880697, "parentStation": "", "lng": -87.723388, "wheelchairAccessible": null}}, {"pk": 304, "model": "gtfs.stop", "fields": {"stopName": "Madison & Hamlin", "locationType": null, "stopDesc": null, "zoneId": null, "stopId": "411", "stopUrl": null, "stopCode": null, "lat": 41.88073, "parentStation": "", "lng": -87.721025, "wheelchairAccessible": null}}, {"pk": 305, "model": "gtfs.stop", "fields": {"stopName": "Madison & Central Park", "locationType": null, "stopDesc": null, "zoneId": null, "stopId": "412", "stopUrl": null, "stopCode": null, "lat": 41.8808072, "parentStation": "", "lng": -87.7159745, "wheelchairAccessible": null}}, {"pk": 306, "model": "gtfs.stop", "fields": {"stopName": "Madison & St. Louis", "locationType": null, "stopDesc": null, "zoneId": null, "stopId": "413", "stopUrl": null, "stopCode": null, "lat": 41.88081388, "parentStation": "", "lng": -87.71381964, "wheelchairAccessible": null}}, {"pk": 307, "model": "gtfs.stop", "fields": {"stopName": "Madison & Spaulding", "locationType": null, "stopDesc": null, "zoneId": null, "stopId": "415", "stopUrl": null, "stopCode": null, "lat": 41.880887, "parentStation": "", "lng": -87.708722, "wheelchairAccessible": null}}, {"pk": 308, "model": "gtfs.stop", "fields": {"stopName": "Madison & Kedzie", "locationType": null, "stopDesc": null, "zoneId": null, "stopId": "416", "stopUrl": null, "stopCode": null, "lat": 41.880902, "parentStation": "", "lng": -87.706333, "wheelchairAccessible": null}}, {"pk": 309, "model": "gtfs.stop", "fields": {"stopName": "Madison & Albany ", "locationType": null, "stopDesc": null, "zoneId": null, "stopId": "417", "stopUrl": null, "stopCode": null, "lat": 41.880952, "parentStation": "", "lng": -87.703147, "wheelchairAccessible": null}}, {"pk": 310, "model": "gtfs.stop", "fields": {"stopName": "Madison & California", "locationType": null, "stopDesc": null, "zoneId": null, "stopId": "420", "stopUrl": null, "stopCode": null, "lat": 41.88100858, "parentStation": "", "lng": -87.69600765, "wheelchairAccessible": null}}, {"pk": 311, "model": "gtfs.stop", "fields": {"stopName": "Madison & Washtenaw", "locationType": null, "stopDesc": null, "zoneId": null, "stopId": "421", "stopUrl": null, "stopCode": null, "lat": 41.88103245, "parentStation": "", "lng": -87.694048, "wheelchairAccessible": null}}, {"pk": 312, "model": "gtfs.stop", "fields": {"stopName": "Madison & Campbell ", "locationType": null, "stopDesc": null, "zoneId": null, "stopId": "423", "stopUrl": null, "stopCode": null, "lat": 41.88106252, "parentStation": "", "lng": -87.68897646, "wheelchairAccessible": null}}, {"pk": 313, "model": "gtfs.stop", "fields": {"stopName": "Madison & Hoyne", "locationType": null, "stopDesc": null, "zoneId": null, "stopId": "427", "stopUrl": null, "stopCode": null, "lat": 41.881232, "parentStation": "", "lng": -87.679293, "wheelchairAccessible": null}}, {"pk": 314, "model": "gtfs.stop", "fields": {"stopName": "Madison & Damen", "locationType": null, "stopDesc": null, "zoneId": null, "stopId": "428", "stopUrl": null, "stopCode": null, "lat": 41.881262, "parentStation": "", "lng": -87.67685, "wheelchairAccessible": null}}, {"pk": 315, "model": "gtfs.stop", "fields": {"stopName": "Madison & United Center (1900 W)", "locationType": null, "stopDesc": null, "zoneId": null, "stopId": "429", "stopUrl": null, "stopCode": null, "lat": 41.88129674, "parentStation": "", "lng": -87.67424663, "wheelchairAccessible": null}}, {"pk": 316, "model": "gtfs.stop", "fields": {"stopName": "Madison & Wood", "locationType": null, "stopDesc": null, "zoneId": null, "stopId": "430", "stopUrl": null, "stopCode": null, "lat": 41.8813284, "parentStation": "", "lng": -87.67186305, "wheelchairAccessible": null}}, {"pk": 317, "model": "gtfs.stop", "fields": {"stopName": "Madison & Paulina", "locationType": null, "stopDesc": null, "zoneId": null, "stopId": "431", "stopUrl": null, "stopCode": null, "lat": 41.88137, "parentStation": "", "lng": -87.669513, "wheelchairAccessible": null}}, {"pk": 318, "model": "gtfs.stop", "fields": {"stopName": "Madison & Ashland", "locationType": null, "stopDesc": null, "zoneId": null, "stopId": "432", "stopUrl": null, "stopCode": null, "lat": 41.88139461, "parentStation": "", "lng": -87.66699977, "wheelchairAccessible": null}}, {"pk": 319, "model": "gtfs.stop", "fields": {"stopName": "Madison & Throop ", "locationType": null, "stopDesc": null, "zoneId": null, "stopId": "435", "stopUrl": null, "stopCode": null, "lat": 41.881525, "parentStation": "", "lng": -87.659765, "wheelchairAccessible": null}}, {"pk": 320, "model": "gtfs.stop", "fields": {"stopName": "Madison & Racine ", "locationType": null, "stopDesc": null, "zoneId": null, "stopId": "436", "stopUrl": null, "stopCode": null, "lat": 41.881545, "parentStation": "", "lng": -87.657333, "wheelchairAccessible": null}}, {"pk": 321, "model": "gtfs.stop", "fields": {"stopName": "Madison & Aberdeen ", "locationType": null, "stopDesc": null, "zoneId": null, "stopId": "437", "stopUrl": null, "stopCode": null, "lat": 41.881608, "parentStation": "", "lng": -87.654897, "wheelchairAccessible": null}}, {"pk": 322, "model": "gtfs.stop", "fields": {"stopName": "Madison & Peoria", "locationType": null, "stopDesc": null, "zoneId": null, "stopId": "439", "stopUrl": null, "stopCode": null, "lat": 41.88167775, "parentStation": "", "lng": -87.64983775, "wheelchairAccessible": null}}, {"pk": 323, "model": "gtfs.stop", "fields": {"stopName": "Halsted & Madison", "locationType": null, "stopDesc": null, "zoneId": null, "stopId": "440", "stopUrl": null, "stopCode": null, "lat": 41.882, "parentStation": "", "lng": -87.64728, "wheelchairAccessible": null}}, {"pk": 324, "model": "gtfs.stop", "fields": {"stopName": "Washington & Jefferson", "locationType": null, "stopDesc": null, "zoneId": null, "stopId": "442", "stopUrl": null, "stopCode": null, "lat": 41.88311, "parentStation": "", "lng": -87.642848, "wheelchairAccessible": null}}, {"pk": 325, "model": "gtfs.stop", "fields": {"stopName": "Washington & Canal", "locationType": null, "stopDesc": null, "zoneId": null, "stopId": "443", "stopUrl": null, "stopCode": null, "lat": 41.883084, "parentStation": "", "lng": -87.639976, "wheelchairAccessible": null}}, {"pk": 326, "model": "gtfs.stop", "fields": {"stopName": "Washington & Franklin", "locationType": null, "stopDesc": null, "zoneId": null, "stopId": "445", "stopUrl": null, "stopCode": null, "lat": 41.883128, "parentStation": "", "lng": -87.635516, "wheelchairAccessible": null}}, {"pk": 327, "model": "gtfs.stop", "fields": {"stopName": "Washington & Lasalle", "locationType": null, "stopDesc": null, "zoneId": null, "stopId": "446", "stopUrl": null, "stopCode": null, "lat": 41.883137, "parentStation": "", "lng": -87.632625, "wheelchairAccessible": null}}, {"pk": 328, "model": "gtfs.stop", "fields": {"stopName": "Washington & Dearborn", "locationType": null, "stopDesc": null, "zoneId": null, "stopId": "447", "stopUrl": null, "stopCode": null, "lat": 41.883145, "parentStation": "", "lng": -87.629611, "wheelchairAccessible": null}}, {"pk": 329, "model": "gtfs.stop", "fields": {"stopName": "Washington & State", "locationType": null, "stopDesc": null, "zoneId": null, "stopId": "448", "stopUrl": null, "stopCode": null, "lat": 41.88316957, "parentStation": "", "lng": -87.62749695, "wheelchairAccessible": null}}, {"pk": 330, "model": "gtfs.stop", "fields": {"stopName": "Washington & Wabash", "locationType": null, "stopDesc": null, "zoneId": null, "stopId": "449", "stopUrl": null, "stopCode": null, "lat": 41.883159, "parentStation": "", "lng": -87.625966, "wheelchairAccessible": null}}, {"pk": 331, "model": "gtfs.stop", "fields": {"stopName": "Madison & Wabash", "locationType": null, "stopDesc": null, "zoneId": null, "stopId": "450", "stopUrl": null, "stopCode": null, "lat": 41.88214, "parentStation": "", "lng": -87.625973, "wheelchairAccessible": null}}, {"pk": 332, "model": "gtfs.stop", "fields": {"stopName": "Madison & Clark", "locationType": null, "stopDesc": null, "zoneId": null, "stopId": "452", "stopUrl": null, "stopCode": null, "lat": 41.882042, "parentStation": "", "lng": -87.630679, "wheelchairAccessible": null}}, {"pk": 333, "model": "gtfs.stop", "fields": {"stopName": "Madison & Wells", "locationType": null, "stopDesc": null, "zoneId": null, "stopId": "453", "stopUrl": null, "stopCode": null, "lat": 41.8820052, "parentStation": "", "lng": -87.63408179, "wheelchairAccessible": null}}, {"pk": 334, "model": "gtfs.stop", "fields": {"stopName": "Madison & N. Wacker", "locationType": null, "stopDesc": null, "zoneId": null, "stopId": "454", "stopUrl": null, "stopCode": null, "lat": 41.88196914, "parentStation": "", "lng": -87.63744347, "wheelchairAccessible": null}}, {"pk": 335, "model": "gtfs.stop", "fields": {"stopName": "Madison & Clinton", "locationType": null, "stopDesc": null, "zoneId": null, "stopId": "455", "stopUrl": null, "stopCode": null, "lat": 41.88194735, "parentStation": "", "lng": -87.64104342, "wheelchairAccessible": null}}, {"pk": 336, "model": "gtfs.stop", "fields": {"stopName": "Madison & Jefferson", "locationType": null, "stopDesc": null, "zoneId": null, "stopId": "456", "stopUrl": null, "stopCode": null, "lat": 41.88191463, "parentStation": "", "lng": -87.64283539, "wheelchairAccessible": null}}, {"pk": 337, "model": "gtfs.stop", "fields": {"stopName": "Madison & Peoria", "locationType": null, "stopDesc": null, "zoneId": null, "stopId": "458", "stopUrl": null, "stopCode": null, "lat": 41.8818, "parentStation": "", "lng": -87.649477, "wheelchairAccessible": null}}, {"pk": 338, "model": "gtfs.stop", "fields": {"stopName": "Madison & Morgan", "locationType": null, "stopDesc": null, "zoneId": null, "stopId": "459", "stopUrl": null, "stopCode": null, "lat": 41.881767, "parentStation": "", "lng": -87.651833, "wheelchairAccessible": null}}, {"pk": 339, "model": "gtfs.stop", "fields": {"stopName": "Madison & Aberdeen ", "locationType": null, "stopDesc": null, "zoneId": null, "stopId": "460", "stopUrl": null, "stopCode": null, "lat": 41.881722, "parentStation": "", "lng": -87.654195, "wheelchairAccessible": null}}, {"pk": 340, "model": "gtfs.stop", "fields": {"stopName": "Madison & Throop ", "locationType": null, "stopDesc": null, "zoneId": null, "stopId": "462", "stopUrl": null, "stopCode": null, "lat": 41.88164, "parentStation": "", "lng": -87.659483, "wheelchairAccessible": null}}, {"pk": 341, "model": "gtfs.stop", "fields": {"stopName": "Madison & Loomis ", "locationType": null, "stopDesc": null, "zoneId": null, "stopId": "463", "stopUrl": null, "stopCode": null, "lat": 41.881587, "parentStation": "", "lng": -87.66204, "wheelchairAccessible": null}}, {"pk": 342, "model": "gtfs.stop", "fields": {"stopName": "Madison & Laflin", "locationType": null, "stopDesc": null, "zoneId": null, "stopId": "464", "stopUrl": null, "stopCode": null, "lat": 41.881548, "parentStation": "", "lng": -87.66449, "wheelchairAccessible": null}}, {"pk": 343, "model": "gtfs.stop", "fields": {"stopName": "Madison & Ashland", "locationType": null, "stopDesc": null, "zoneId": null, "stopId": "465", "stopUrl": null, "stopCode": null, "lat": 41.881523, "parentStation": "", "lng": -87.666567, "wheelchairAccessible": null}}, {"pk": 344, "model": "gtfs.stop", "fields": {"stopName": "Madison & Paulina", "locationType": null, "stopDesc": null, "zoneId": null, "stopId": "466", "stopUrl": null, "stopCode": null, "lat": 41.88149, "parentStation": "", "lng": -87.669113, "wheelchairAccessible": null}}, {"pk": 345, "model": "gtfs.stop", "fields": {"stopName": "Madison & United Center (1900 W)", "locationType": null, "stopDesc": null, "zoneId": null, "stopId": "468", "stopUrl": null, "stopCode": null, "lat": 41.88141872, "parentStation": "", "lng": -87.67423738, "wheelchairAccessible": null}}, {"pk": 346, "model": "gtfs.stop", "fields": {"stopName": "Madison & Damen", "locationType": null, "stopDesc": null, "zoneId": null, "stopId": "469", "stopUrl": null, "stopCode": null, "lat": 41.881398, "parentStation": "", "lng": -87.676448, "wheelchairAccessible": null}}, {"pk": 347, "model": "gtfs.stop", "fields": {"stopName": "Madison & Hoyne", "locationType": null, "stopDesc": null, "zoneId": null, "stopId": "470", "stopUrl": null, "stopCode": null, "lat": 41.881337, "parentStation": "", "lng": -87.678923, "wheelchairAccessible": null}}, {"pk": 348, "model": "gtfs.stop", "fields": {"stopName": "Madison & Western", "locationType": null, "stopDesc": null, "zoneId": null, "stopId": "473", "stopUrl": null, "stopCode": null, "lat": 41.881235, "parentStation": "", "lng": -87.686193, "wheelchairAccessible": null}}, {"pk": 349, "model": "gtfs.stop", "fields": {"stopName": "Madison & Francisco", "locationType": null, "stopDesc": null, "zoneId": null, "stopId": "478", "stopUrl": null, "stopCode": null, "lat": 41.881103, "parentStation": "", "lng": -87.698552, "wheelchairAccessible": null}}, {"pk": 350, "model": "gtfs.stop", "fields": {"stopName": "Madison & Sacramento", "locationType": null, "stopDesc": null, "zoneId": null, "stopId": "479", "stopUrl": null, "stopCode": null, "lat": 41.881088, "parentStation": "", "lng": -87.701062, "wheelchairAccessible": null}}, {"pk": 351, "model": "gtfs.stop", "fields": {"stopName": "Madison & Albany ", "locationType": null, "stopDesc": null, "zoneId": null, "stopId": "480", "stopUrl": null, "stopCode": null, "lat": 41.881052, "parentStation": "", "lng": -87.703457, "wheelchairAccessible": null}}, {"pk": 352, "model": "gtfs.stop", "fields": {"stopName": "Madison & Spaulding", "locationType": null, "stopDesc": null, "zoneId": null, "stopId": "482", "stopUrl": null, "stopCode": null, "lat": 41.880992, "parentStation": "", "lng": -87.708572, "wheelchairAccessible": null}}, {"pk": 353, "model": "gtfs.stop", "fields": {"stopName": "Madison & St. Louis", "locationType": null, "stopDesc": null, "zoneId": null, "stopId": "484", "stopUrl": null, "stopCode": null, "lat": 41.880943, "parentStation": "", "lng": -87.713772, "wheelchairAccessible": null}}, {"pk": 354, "model": "gtfs.stop", "fields": {"stopName": "Madison & Central Park", "locationType": null, "stopDesc": null, "zoneId": null, "stopId": "485", "stopUrl": null, "stopCode": null, "lat": 41.88092565, "parentStation": "", "lng": -87.71581962, "wheelchairAccessible": null}}, {"pk": 355, "model": "gtfs.stop", "fields": {"stopName": "Madison & Hamlin", "locationType": null, "stopDesc": null, "zoneId": null, "stopId": "486", "stopUrl": null, "stopCode": null, "lat": 41.88086554, "parentStation": "", "lng": -87.72097816, "wheelchairAccessible": null}}, {"pk": 356, "model": "gtfs.stop", "fields": {"stopName": "Madison & Springfield", "locationType": null, "stopDesc": null, "zoneId": null, "stopId": "487", "stopUrl": null, "stopCode": null, "lat": 41.88080561, "parentStation": "", "lng": -87.7231035, "wheelchairAccessible": null}}, {"pk": 357, "model": "gtfs.stop", "fields": {"stopName": "Madison & Kenton ", "locationType": null, "stopDesc": null, "zoneId": null, "stopId": "494", "stopUrl": null, "stopCode": null, "lat": 41.88065, "parentStation": "", "lng": -87.740598, "wheelchairAccessible": null}}, {"pk": 358, "model": "gtfs.stop", "fields": {"stopName": "Madison & Kilpatrick", "locationType": null, "stopDesc": null, "zoneId": null, "stopId": "495", "stopUrl": null, "stopCode": null, "lat": 41.880632, "parentStation": "", "lng": -87.74259, "wheelchairAccessible": null}},